,ortnamn,kommun,pop,area,popdensity,orttyp,latitude,longitude,efterled
Abbekås (Skurup kommun),Abbekås,Skurup,825,158,523,tätort,55.3992749,13.6002756,ås
Abborrberget (Strängnäs kommun),Abborrberget,Strängnäs,2655,165,1606,tätort,59.3857744,17.0382102,berget
Agunnaryd (Ljungby kommun),Agunnaryd,Ljungby,210,48,437,tätort,56.749574,14.146603,ryd
Alberga (Eskilstuna kommun),Alberga,Eskilstuna,406,60,682,tätort,59.280621,16.1145003,berga
Alby (Ånge kommun),Alby,Ånge,327,149,220,tätort,62.4940614,15.4766852,by
Alfta (Ovanåker kommun),Alfta,Ovanåker,2461,382,644,tätort,61.345719,16.0001042,ta
Algutsrum (Mörbylånga kommun),Algutsrum,Mörbylånga,858,175,490,tätort,56.6794265,16.5297957,rum
Alingsås (Alingsås kommun),Alingsås,Alingsås,27266,1410,1934,tätort,57.9299658,12.5329678,ås
Allerum (Helsingborg kommun),Allerum,Helsingborg,725,94,770,tätort,56.1099864,12.6918267,rum
Almunge (Uppsala kommun),Almunge,Uppsala,888,149,595,tätort,59.8773068,18.0461233,
Alsike (Knivsta kommun),Alsike,Knivsta,4933,338,1461,tätort,59.7566269,17.7635873,sike
Alstad (Trelleborg kommun),Alstad,Trelleborg,341,54,631,tätort,55.4543742,13.2095014,stad
Alster (Karlstad kommun),Alster,Karlstad,771,146,529,tätort,59.3981176,13.6084317,
Alsterbro (Nybro kommun),Alsterbro,Nybro,451,105,431,tätort,56.9402572,15.9139431,bro
Alstermo (Uppvidinge kommun),Alstermo,Uppvidinge,885,175,505,tätort,56.9742714,15.6526808,mo
Alunda (Östhammar kommun),Alunda,Östhammar,2629,298,882,tätort,60.0664532,18.0780717,lunda
Alvesta (Alvesta kommun),Alvesta,Alvesta,9076,647,1403,tätort,56.8997562,14.5546493,sta
Alvhem (Ale kommun),Alvhem,Ale,333,86,389,tätort,58.0063995,12.1576462,hem
Alvik (Leksand kommun),Alvik,Leksand,306,171,179,tätort,60.7477267,14.874597,vik
Ambjörnarp (Tranemo kommun),Ambjörnarp,Tranemo,300,103,290,tätort,57.4213149,13.2945589,arp
Ammenäs (Uddevalla kommun),Ammenäs,Uddevalla,603,149,406,tätort,58.3113955,11.8184075,näs
Anderslöv (Trelleborg kommun),Anderslöv,Trelleborg,1997,138,1447,tätort,55.4388771,13.3186826,löv
Anderstorp (Gislaved kommun),Anderstorp,Gislaved,5140,638,806,tätort,57.2829822,13.6368211,torp
Aneby (Aneby kommun),Aneby,Aneby,3690,406,909,tätort,57.838069,14.8100784,by
Angelstad (Ljungby kommun),Angelstad,Ljungby,255,62,414,tätort,56.8280083,13.7622687,stad
Angered (Göteborg kommun),Angered,Göteborg,1417,237,597,tätort,57.81327775,12.118507262629436,red
Ankarsrum (Västervik kommun),Ankarsrum,Västervik,1328,168,788,tätort,57.6990558,16.3356297,rum
Ankarsvik (Sundsvall kommun),Ankarsvik,Sundsvall,1015,208,488,tätort,62.373596,17.40904,vik
Anneberg (Nässjö kommun),Anneberg,Nässjö,826,117,709,tätort,57.7233889,14.8067122,berg
Annelöv (Landskrona kommun),Annelöv,Landskrona,453,68,671,tätort,55.8365448,13.0197328,löv
Antnäs (Luleå kommun),Antnäs,Luleå,1723,295,583,tätort,65.5525529,21.8428729,näs
Aplared (Borås kommun),Aplared,Borås,450,65,697,tätort,57.6501253,13.067945,red
Arboga (Arboga kommun),Arboga,Arboga,10981,714,1538,tätort,59.394187,15.8396643,
Arbrå (Bollnäs kommun),Arbrå,Bollnäs,2105,295,713,tätort,61.4730882,16.374964,rå
Ardala (Skara kommun),Ardala,Skara,715,65,1103,tätort,58.3620073,13.3380561,dala
Arentorp (Vara kommun),Arentorp,Vara,507,82,615,tätort,58.241915,12.8738943,torp
Arild (Höganäs kommun),Arild,Höganäs,705,333,212,tätort,56.2738191,12.5721097,
Arjeplog (Arjeplog kommun),Arjeplog,Arjeplog,1782,223,799,tätort,66.0517686,17.89168,
Arkelstorp (Kristianstad kommun),Arkelstorp,Kristianstad,810,158,511,tätort,56.1739234,14.2897744,torp
Arninge (Täby kommun),Arninge,Täby,1354,155,872,tätort,59.4647097,18.129501,inge
Arnö (Nyköping kommun),Arnö,Nyköping,4662,247,1890,tätort,58.7297054,17.0214131,ö
Arrie (Vellinge kommun),Arrie,Vellinge,213,38,565,tätort,55.5155259,13.0851347,ie
Arvidsjaur (Arvidsjaur kommun),Arvidsjaur,Arvidsjaur,4607,427,1079,tätort,65.5947672,19.1695024,jaur
Arvidsvik (Kungälv kommun),Arvidsvik,Kungälv,1028,116,885,tätort,57.8901059,11.5959299,vik
Arvika (Arvika kommun),Arvika,Arvika,14095,1169,1205,tätort,59.6543555,12.5916225,vika
Aröd (Kungälv kommun),Aröd,Kungälv,888,265,335,tätort,57.9577881,11.7689991,röd
Timmervik (Kungälv kommun),Timmervik,Kungälv,888,265,335,tätort,57.9017883,12.0368307,vik
Askeby (Linköping kommun),Askeby,Linköping,505,58,875,tätort,58.4066961,15.871683116298325,by
Askersby (Örebro kommun),Askersby,Örebro,254,59,432,tätort,59.1489606,15.474376,by
Askersund (Askersund kommun),Askersund,Askersund,4172,386,1081,tätort,58.8799641,14.9028069,sund
Asmundtorp (Landskrona kommun),Asmundtorp,Landskrona,1599,118,1351,tätort,55.8855959,12.9471949,torp
Aspeboda (Falu kommun),Aspeboda,Falu,345,176,196,tätort,60.560042,15.4918744,boda
Asperö (Göteborg kommun),Asperö,Göteborg,419,38,1090,tätort,57.64628555,11.80021166698275,ö
Aspås (Krokom kommun),Aspås,Krokom,482,148,326,tätort,63.3650346,14.4847004,ås
Avan (Luleå kommun),Avan,Luleå,210,61,344,tätort,65.6804173,21.8046379,
Avesta (Avesta kommun),Avesta,Avesta,16498,1500,1100,tätort,60.1469553,16.1826996,sta
Axvall (Skara kommun),Axvall,Skara,1142,116,985,tätort,58.3891661,13.5747695,vall
Backa (Rättvik kommun),Backa,Rättvik,626,355,176,tätort,60.9240204,15.1208281,backa
Backaryd (Ronneby kommun),Backaryd,Ronneby,397,71,562,tätort,56.3472091,15.1544828,ryd
Backe (Strömsund kommun),Backe,Strömsund,543,150,361,tätort,63.8106436,16.4057931,
Baggetorp (Vingåker kommun),Baggetorp,Vingåker,563,121,465,tätort,59.0081907,16.0634141,torp
Ballingslöv (Hässleholm kommun),Ballingslöv,Hässleholm,362,66,546,tätort,56.2142746,13.8465783,löv
Balsby (Kristianstad kommun),Balsby,Kristianstad,522,69,757,tätort,56.075362,14.2110301,by
Bammarboda (Österåker kommun),Bammarboda,Österåker,664,309,215,tätort,59.5064698,18.4684635,boda
Bankekind (Linköping kommun),Bankekind,Linköping,500,48,1047,tätort,58.3614502,15.853222910286785,
Bankeryd (Jönköping kommun),Bankeryd,Jönköping,8817,750,1176,tätort,57.8631423,14.1278533,ryd
Bara (Svedala kommun),Bara,Svedala,3801,174,2180,tätort,55.5821668,13.1806037,
Barkarö (Västerås kommun),Barkarö,Västerås,1597,157,1017,tätort,59.5557933,16.5041931,ö
Barnarp (Jönköping kommun),Barnarp,Jönköping,2921,202,1445,tätort,58.0688965,14.5417977,arp
Odensjö (Jönköping kommun),Odensjö,Jönköping,2921,202,1445,tätort,57.7076329,14.1757875,sjö
Barsebäck (Kävlinge kommun),Barsebäck,Kävlinge,851,63,1344,tätort,55.7716614,12.9563659,bäck
Barsebäckshamn (Kävlinge kommun),Barsebäckshamn,Kävlinge,477,54,891,tätort,55.7558368,12.9058848,hamn
Baskemölla (Simrishamn kommun),Baskemölla,Simrishamn,308,70,439,tätort,55.5915413,14.3152961,la
Bastuträsk (Norsjö kommun),Bastuträsk,Norsjö,373,90,415,tätort,64.789528,20.0438232,träsk
Beddingestrand (Trelleborg kommun),Beddingestrand,Trelleborg,1440,386,373,tätort,55.3606336,13.4251847,strand
Bengtsfors (Bengtsfors kommun),Bengtsfors,Bengtsfors,3249,390,833,tätort,59.0309288,12.222887,fors
Bengtsheden (Falu kommun),Bengtsheden,Falu,515,182,282,tätort,60.7002137,15.8722929,heden
Bensbyn (Luleå kommun),Bensbyn,Luleå,612,129,475,tätort,65.639826,22.2396659,byn
Berg (Åtvidaberg kommun),Berg,Åtvidaberg,305,54,560,tätort,58.2167865,16.0221066,berg
Berg (Linköping kommun),Berg,Linköping,1272,116,1093,tätort,58.487532,15.52627,berg
Berg (Gävle kommun),Berg,Gävle,304,118,258,tätort,60.4031589,17.0177439,berg
Berga (Högsby kommun),Berga,Högsby,788,145,544,tätort,57.2173981,16.0346698,berga
Bergagård (Falkenberg kommun),Bergagård,Falkenberg,245,86,283,tätort,56.9815167,12.5775003,
Bergby (Gävle kommun),Bergby,Gävle,1575,467,337,tätort,60.9290646,17.0410031,by
Bergeforsen (Timrå kommun),Bergeforsen,Timrå,1766,282,626,tätort,62.526318,17.3739827,forsen
Berghem (Mark kommun),Berghem,Mark,374,86,435,tätort,57.4668015,12.5894438,hem
Bergkvara (Torsås kommun),Bergkvara,Torsås,1221,258,472,tätort,56.3907509,16.070362,
Bergnäset (Luleå kommun),Bergnäset,Luleå,3683,299,1234,tätort,65.5682242,22.1101459,
Bergshammar (Nyköping kommun),Bergshammar,Nyköping,814,66,1241,tätort,58.741404,16.912554,hammar
Bergshamra (Norrtälje kommun),Bergshamra,Norrtälje,604,262,231,tätort,59.6395313,18.6564963,
Bergsjö (Nordanstig kommun),Bergsjö,Nordanstig,1290,186,694,tätort,61.9837757,17.0583699,sjö
Bergströmshusen (Staffanstorp kommun),Bergströmshusen,Staffanstorp,398,31,1276,tätort,55.6766809,13.1733609,
Bergsviken (Piteå kommun),Bergsviken,Piteå,2288,214,1068,tätort,65.307803,21.390501,viken
Bergvik (Söderhamn kommun),Bergvik,Söderhamn,705,165,427,tätort,61.2553522,16.8325443,vik
Bestorp (Linköping kommun),Bestorp,Linköping,510,95,536,tätort,58.2334751,15.7332185,torp
Betsede (Värmdö kommun),Betsede,Värmdö,317,56,568,tätort,59.3297852,18.431584,
Bettna (Flen kommun),Bettna,Flen,397,70,564,tätort,58.9072551,16.6387139,
Bie (Katrineholm kommun),Bie,Katrineholm,521,63,822,tätort,59.0878603,16.2116606,ie
Billeberga (Svalöv kommun),Billeberga,Svalöv,1049,141,742,tätort,55.882914,12.9990874,berga
Billinge (Eslöv kommun),Billinge,Eslöv,425,81,527,tätort,55.9625291,13.3317811,inge
Billingsfors (Bengtsfors kommun),Billingsfors,Bengtsfors,1167,160,730,tätort,58.9833543,12.2467712,fors
Billsta (Örnsköldsvik kommun),Billsta,Örnsköldsvik,358,103,348,tätort,63.3228771,18.5144955,sta
Bjurholm (Bjurholm kommun),Bjurholm,Bjurholm,1030,166,620,tätort,63.9320592,19.2189925,holm
Bjursås (Falu kommun),Bjursås,Falu,2083,560,372,tätort,60.7376045,15.4501906,ås
Bjuv (Bjuv kommun),Bjuv,Bjuv,10660,967,1102,tätort,56.0842983,12.9167304,
Bjärlöv (Kristianstad kommun),Bjärlöv,Kristianstad,217,69,316,tätort,56.1129447,14.0871099,löv
Bjärnum (Hässleholm kommun),Bjärnum,Hässleholm,2814,434,649,tätort,56.2904411,13.7114221,um
Bjärred (Lomma kommun),Bjärred,Lomma,9935,510,1949,tätort,55.7221863,13.0216436,red
Bjärsjölagård (Sjöbo kommun),Bjärsjölagård,Sjöbo,370,75,495,tätort,55.7231071,13.689776,
Bjästa (Örnsköldsvik kommun),Bjästa,Örnsköldsvik,1884,244,772,tätort,63.2038751,18.5002737,sta
Björbo (Gagnef kommun),Björbo,Gagnef,661,193,342,tätort,60.456683,14.7272515,bo
Björboholm (Lerum kommun),Björboholm,Lerum,1142,255,449,tätort,57.8735794,12.3280504,holm
Björke (Gävle kommun),Björke,Gävle,665,140,474,tätort,60.7652778,17.189879,
Björketorp (Mark kommun),Björketorp,Mark,555,91,607,tätort,57.4262839,12.5236873,torp
Björklinge (Uppsala kommun),Björklinge,Uppsala,3336,305,1092,tätort,60.0291369,17.551431,inge
Björktorp (Strängnäs kommun),Björktorp,Strängnäs,460,170,270,tätort,59.1955138,17.2274474,torp
Sanda (Strängnäs kommun),Sanda,Strängnäs,460,170,270,tätort,59.4197992,16.9850272,
Björkvik (Katrineholm kommun),Björkvik,Katrineholm,461,119,388,tätort,58.8397725,16.5138323,vik
Björköby (Vetlanda kommun),Björköby,Vetlanda,326,84,390,tätort,57.5192168,14.9059189,by
Björlanda (Göteborg kommun),Björlanda,Göteborg,1126,158,713,tätort,57.7617862,11.8233916,landa
Björna (Örnsköldsvik kommun),Björna,Örnsköldsvik,396,73,541,tätort,63.5501179,18.5998177,
Björnarås (Mölndal kommun),Björnarås,Mölndal,323,41,796,tätort,57.5743612,12.0507292,ås
Björneborg (Kristinehamn kommun),Björneborg,Kristinehamn,1178,144,816,tätort,59.242214,14.2506109,borg
Björnlunda (Gnesta kommun),Björnlunda,Gnesta,832,116,718,tätort,59.0660266,17.159785,lunda
Björnänge (Åre kommun),Björnänge,Åre,752,401,187,tätort,63.3851677,13.1387068,änge
Björnö (Växjö kommun),Björnö,Växjö,210,15,1363,tätort,57.173558,14.6060965,ö
Björsäter (Åtvidaberg kommun),Björsäter,Åtvidaberg,387,73,534,tätort,58.3356123,16.024211,säter
Blackstalund (Uppsala kommun),Blackstalund,Uppsala,260,78,334,tätort,59.9630562,17.3826215,lund
Bleket (Tjörn kommun),Bleket,Tjörn,446,117,382,tätort,57.9532505,11.5703756,
Blentarp (Sjöbo kommun),Blentarp,Sjöbo,1461,254,576,tätort,55.5841581,13.5990807,arp
Blidsberg (Ulricehamn kommun),Blidsberg,Ulricehamn,553,113,489,tätort,57.9305831,13.4933452,berg
Blidö (Norrtälje kommun),Blidö,Norrtälje,258,564,46,tätort,59.6145386,18.90146437159957,ö
Blixbo (Falu kommun),Blixbo,Falu,279,105,265,tätort,60.6292178,15.8264306,bo
Blombacka (Karlstad kommun),Blombacka,Karlstad,204,96,212,tätort,59.6067671,13.8004316,backa
Blomstermåla (Mönsterås kommun),Blomstermåla,Mönsterås,2410,378,638,tätort,56.9845703,16.3286835,måla
Blåsmark (Piteå kommun),Blåsmark,Piteå,291,57,512,tätort,65.2652847,21.2927158,mark
Bläshammar (Varberg kommun),Bläshammar,Varberg,958,187,513,tätort,57.1532529,12.2573197,hammar
Trönningenäs (Varberg kommun),Trönningenäs,Varberg,958,187,513,tätort,57.138731,12.2238818,näs
Blötberget (Ludvika kommun),Blötberget,Ludvika,271,58,470,tätort,60.1267746,15.0587897,berget
Bockara (Oskarshamn kommun),Bockara,Oskarshamn,364,101,360,tätort,57.2618364,16.0651399,
Boda (Rättvik kommun),Boda,Rättvik,522,282,185,tätort,61.0113215,15.2137181,boda
Bodafors (Nässjö kommun),Bodafors,Nässjö,2036,242,843,tätort,57.5052622,14.7033794,fors
Boden (Boden kommun),Boden,Boden,16847,1417,1189,tätort,65.8275004,21.6964105,
Bohus-Björkö (Öckerö kommun),Bohus-Björkö,Öckerö,1487,103,1439,tätort,57.7345679,11.681608450794595,ö
Boliden (Skellefteå kommun),Boliden,Skellefteå,1639,146,1126,tätort,64.8670486,20.3873335,liden
Bollebygd (Bollebygd kommun),Bollebygd,Bollebygd,4413,341,1295,tätort,57.6688624,12.5707216,
Bollnäs (Bollnäs kommun),Bollnäs,Bollnäs,13962,1287,1085,tätort,61.3513005,16.3972013,näs
Bollstabruk (Kramfors kommun),Bollstabruk,Kramfors,1863,523,356,tätort,62.9971425,17.6757247,bruk
Bondstorp (Vaggeryd kommun),Bondstorp,Vaggeryd,219,56,391,tätort,,,torp
Bonäs (Mora kommun),Bonäs,Mora,391,107,364,tätort,61.0715557,14.4858613,näs
Bor (Värnamo kommun),Bor,Värnamo,1291,165,781,tätort,57.1126382,14.1664625,
Borensberg (Motala kommun),Borensberg,Motala,3092,296,1045,tätort,58.5656587,15.2802181,berg
Borggård (Finspång kommun),Borggård,Finspång,246,47,522,tätort,58.7302031,15.5589908,
Borgholm (Borgholm kommun),Borgholm,Borgholm,4364,913,478,tätort,56.8799276,16.6561377,holm
Borgstena (Borås kommun),Borgstena,Borås,428,107,400,tätort,57.8838055,13.0131695,
Borlänge (Borlänge kommun),Borlänge,Borlänge,43107,3165,1362,tätort,60.4856426,15.4234561,änge
Borrby (Simrishamn kommun),Borrby,Simrishamn,981,103,952,tätort,55.4580331,14.1808853,by
Borås (Borås kommun),Borås,Borås,72984,2893,2523,tätort,57.7210839,12.9407407,ås
Bosnäs (Borås kommun),Bosnäs,Borås,448,100,447,tätort,57.6676484,12.8505706,näs
Botsmark (Umeå kommun),Botsmark,Umeå,202,39,520,tätort,64.2534035,20.2461959,mark
Bottnaryd (Jönköping kommun),Bottnaryd,Jönköping,739,87,845,tätort,57.7695139,13.8261337,ryd
Bovallstrand (Sotenäs kommun),Bovallstrand,Sotenäs,438,136,321,tätort,58.4753084,11.3304584,strand
Boxholm (Boxholm kommun),Boxholm,Boxholm,3329,441,754,tätort,58.1981005,15.0571207,holm
Brantevik (Simrishamn kommun),Brantevik,Simrishamn,345,87,398,tätort,55.5151992,14.345963,vik
Brastad (Lysekil kommun),Brastad,Lysekil,2036,347,586,tätort,58.3820066,11.4851818,stad
Braås (Växjö kommun),Braås,Växjö,1743,153,1138,tätort,57.0597928,15.0483561,ås
Bredared (Borås kommun),Bredared,Borås,327,60,544,tätort,57.8057829,12.9029859,red
Bredaryd (Värnamo kommun),Bredaryd,Värnamo,1556,223,697,tätort,57.1741048,13.7389376,ryd
Bredbyn (Örnsköldsvik kommun),Bredbyn,Örnsköldsvik,1268,194,653,tätort,63.4488661,18.1118865,byn
Bredsand (Enköping kommun),Bredsand,Enköping,1413,229,618,tätort,59.5997035,17.0670895,
Bredviken (Kalix kommun),Bredviken,Kalix,363,57,634,tätort,65.8286416,23.214159330292286,viken
Bro (Upplands-Bro kommun),Bro,Upplands-Bro,8915,445,2005,tätort,59.514658,17.6426027,bro
Broaryd (Gislaved kommun),Broaryd,Gislaved,289,71,409,tätort,57.1202315,13.2583524,ryd
Broby (Östra Göinge kommun),Broby,Östra Göinge,3443,390,883,tätort,56.2549337,14.0777187,by
Brokind (Linköping kommun),Brokind,Linköping,512,77,664,tätort,58.2181536,15.6814626,
Bromölla (Bromölla kommun),Bromölla,Bromölla,8140,632,1288,tätort,56.076158,14.4681732,la
Brotorp (Säffle kommun),Brotorp,Säffle,278,22,1272,tätort,59.1924707,13.0290301,torp
Brottby (Vallentuna kommun),Brottby,Vallentuna,262,39,671,tätort,59.5609596,18.238716,by
Bruksvallarna (Härjedalen kommun),Bruksvallarna,Härjedalen,210,161,130,tätort,62.6403098,12.4422158,
Brunn (Värmdö kommun),Brunn,Värmdö,1301,215,604,tätort,59.2819195,18.4264952,brunn
Brunna (Upplands-Bro kommun),Brunna,Upplands-Bro,4015,345,1165,tätort,59.503435,17.7507322,
Brunnsberg (Älvdalen kommun),Brunnsberg,Älvdalen,209,121,172,tätort,61.2940678,13.9198756,berg
Bruzaholm (Eksjö kommun),Bruzaholm,Eksjö,274,75,363,tätort,57.6424632,15.2719703,holm
Brålanda (Vänersborg kommun),Brålanda,Vänersborg,1554,183,848,tätort,58.5633121,12.3507401,landa
Bräcke (Bräcke kommun),Bräcke,Bräcke,1533,203,755,tätort,62.7521274,15.4198705,
Bräkne-Hoby (Ronneby kommun),Bräkne-Hoby,Ronneby,1719,241,714,tätort,56.2285608,15.1169407,by
Brändön (Luleå kommun),Brändön,Luleå,341,98,349,tätort,65.6953813,22.3365664,ön
Brännland (Umeå kommun),Brännland,Umeå,332,63,527,tätort,63.8664757,20.0768353,land
Brännäset (Umeå kommun),Brännäset,Umeå,278,270,103,tätort,63.6622817,19.9985514,
Boviken (Umeå kommun),Boviken,Umeå,278,270,103,tätort,,,viken
Brännö (Göteborg kommun),Brännö,Göteborg,913,193,473,tätort,57.64378365,11.771863689397328,ö
Brösarp (Tomelilla kommun),Brösarp,Tomelilla,734,97,758,tätort,55.7260391,14.1049163,arp
Bua (Varberg kommun),Bua,Varberg,2110,239,882,tätort,57.2370372,12.1224817,
Buerås (Kungsbacka kommun),Buerås,Kungsbacka,768,91,843,tätort,57.423823,11.9681797,ås
Bullmark (Umeå kommun),Bullmark,Umeå,312,44,715,tätort,64.0285823,20.4839591,mark
Bunkeflostrand (Malmö kommun),Bunkeflostrand,Malmö,14135,495,2854,tätort,55.54982005,12.929947222138855,strand
Bureå (Skellefteå kommun),Bureå,Skellefteå,2587,382,677,tätort,64.6179842,21.200493,eå
Burgsvik (Region Gotland kommun),Burgsvik,Region Gotland,350,127,275,tätort,57.0332117,18.2766964,vik
Burlövs egnahem (Burlöv kommun),Burlövs egnahem,Burlöv,716,29,2498,tätort,55.6358275,13.1019159,hem
Burseryd (Gislaved kommun),Burseryd,Gislaved,999,194,516,tätort,57.2013932,13.2818912,ryd
Burträsk (Skellefteå kommun),Burträsk,Skellefteå,1631,192,849,tätort,64.5190044,20.6557865,träsk
Buskhyttan (Nyköping kommun),Buskhyttan,Nyköping,201,58,345,tätort,58.6650719,16.9420798,tan
Butbro (Finspång kommun),Butbro,Finspång,285,40,713,tätort,58.7163228,15.8344557,bro
Bygdeå (Robertsfors kommun),Bygdeå,Robertsfors,514,79,653,tätort,64.0610888,20.853516,eå
Bygdsiljum (Skellefteå kommun),Bygdsiljum,Skellefteå,313,93,337,tätort,64.3506694,20.5050613,um
Byske (Skellefteå kommun),Byske,Skellefteå,1771,328,540,tätort,64.9545082,21.2057517,
Bålsta (Håbo kommun),Bålsta,Håbo,15210,1148,1325,tätort,59.5682102,17.5293647,sta
Båstad (Båstad kommun),Båstad,Båstad,5513,870,634,tätort,56.4267895,12.8607151,stad
Båtbyggartorp (Upplands Väsby kommun),Båtbyggartorp,Upplands Väsby,207,47,440,tätort,59.5216392,17.8482708,torp
Båtskärsnäs (Kalix kommun),Båtskärsnäs,Kalix,225,66,341,tätort,65.7809286,23.4221389,näs
Bäckaskog (Kristianstad kommun),Bäckaskog,Kristianstad,318,43,743,tätort,56.0442996,14.3342604,skog
Bäckebo (Nybro kommun),Bäckebo,Nybro,226,83,274,tätort,56.8892206,16.0653628,bo
Bäckefors (Bengtsfors kommun),Bäckefors,Bengtsfors,701,140,499,tätort,58.8061271,12.1599693,fors
Bäckhammar (Kristinehamn kommun),Bäckhammar,Kristinehamn,294,83,356,tätort,59.1589394,14.190986,hammar
Bälgviken (Eskilstuna kommun),Bälgviken,Eskilstuna,228,42,544,tätort,59.2498277,16.4607413,viken
Bälinge (Uppsala kommun),Bälinge,Uppsala,2605,189,1381,tätort,59.9488453,17.5429846,inge
Bälinge (Luleå kommun),Bälinge,Luleå,296,62,479,tätort,65.6322135,21.9262661,inge
Bärby (Uppsala kommun),Bärby,Uppsala,363,56,643,tätort,59.8566853,17.8175047,by
Bäsna (Gagnef kommun),Bäsna,Gagnef,664,150,443,tätort,60.5411314,15.2077918,
Bökenäs (Ronneby kommun),Bökenäs,Ronneby,453,249,182,tätort,56.15858,15.3789447,näs
Korsanäs (Ronneby kommun),Korsanäs,Ronneby,453,249,182,tätort,56.14087,15.3407032,näs
Kuggeboda (Ronneby kommun),Kuggeboda,Ronneby,453,249,182,tätort,56.1400077,15.3667035,boda
Böle (Piteå kommun),Böle,Piteå,352,65,538,tätort,65.3861517,21.3225391,böle
Bönan (Gävle kommun),Bönan,Gävle,918,302,304,tätort,60.7361314,17.3032168,
Charlottenberg (Eda kommun),Charlottenberg,Eda,2499,285,876,tätort,59.8839607,12.3049207,berg
Dala-Floda (Gagnef kommun),Dala-Floda,Gagnef,684,228,300,tätort,60.5076925,14.79673,
Dalarö (Haninge kommun),Dalarö,Haninge,1855,604,307,tätort,59.1335185,18.4052397,ö
Dalby (Lund kommun),Dalby,Lund,6602,414,1595,tätort,55.6646637,13.3461589,by
Dals Långed (Bengtsfors kommun),Dals Långed,Bengtsfors,1453,211,689,tätort,58.9259057,12.3063826,ed
Dals Rostock (Mellerud kommun),Dals Rostock,Mellerud,853,143,598,tätort,58.7140856,12.3556541,
Dalsjöfors (Borås kommun),Dalsjöfors,Borås,3725,366,1018,tätort,57.7216986,13.1069626,fors
Dalstorp (Tranemo kommun),Dalstorp,Tranemo,714,144,494,tätort,57.6056025,13.5115338,torp
Dalum (Ulricehamn kommun),Dalum,Ulricehamn,674,78,860,tätort,57.9002966,13.4649246,um
Danholn (Falu kommun),Danholn,Falu,464,80,578,tätort,60.6195452,15.7929596,
Danmark (Uppsala kommun),Danmark,Uppsala,433,55,789,tätort,59.8322934,17.744172,mark
Dannemora (Östhammar kommun),Dannemora,Östhammar,227,68,335,tätort,60.2032735,17.8599065,mora
Dannike (Borås kommun),Dannike,Borås,453,77,592,tätort,57.6887714,13.227561,ike
Degeberga (Kristianstad kommun),Degeberga,Kristianstad,1371,215,639,tätort,55.8371511,14.0892635,berga
Degerfors (Degerfors kommun),Degerfors,Degerfors,7371,735,1003,tätort,59.2361209,14.4297309,fors
Degerhamn (Mörbylånga kommun),Degerhamn,Mörbylånga,309,107,290,tätort,56.3555211,16.4110099,hamn
Deje (Forshaga kommun),Deje,Forshaga,2722,318,856,tätort,59.6059394,13.4636486,
Delary (Älmhult kommun),Delary,Älmhult,207,46,447,tätort,56.5467636,13.9560721,
Delsbo (Hudiksvall kommun),Delsbo,Hudiksvall,2275,317,718,tätort,61.7999994,16.5554308,bo
Dingle (Munkedal kommun),Dingle,Munkedal,895,117,765,tätort,58.5276578,11.578637,
Dingtuna (Västerås kommun),Dingtuna,Västerås,1032,105,980,tätort,59.5724025,16.388665,tuna
Diseröd (Kungälv kommun),Diseröd,Kungälv,1386,122,1133,tätort,57.9246067,12.0288279,röd
Diö (Älmhult kommun),Diö,Älmhult,886,140,633,tätort,56.6393813,14.2211316,ö
Djupekås (Sölvesborg kommun),Djupekås,Sölvesborg,205,32,634,tätort,56.0706715,14.7187006,ås
Djura (Leksand kommun),Djura,Leksand,382,126,304,tätort,60.612263,15.0054703,
Djurås (Gagnef kommun),Djurås,Gagnef,2162,390,555,tätort,60.560541,15.1303132,ås
Djurö (Värmdö kommun),Djurö,Värmdö,1463,643,228,tätort,59.3113621,18.7015752,ö
Djurön (Norrköping kommun),Djurön,Norrköping,280,56,501,tätort,58.6292733,16.3471657,ön
Docksta (Kramfors kommun),Docksta,Kramfors,416,106,391,tätort,63.0573209,18.327456,sta
Domsten (Helsingborg kommun),Domsten,Helsingborg,602,50,1211,tätort,56.1196938,12.6073088,sten
Donsö (Göteborg kommun),Donsö,Göteborg,1453,105,1382,tätort,57.6015754,11.8034621075405,ö
Dorotea (Dorotea kommun),Dorotea,Dorotea,1366,204,671,tätort,64.2619222,16.4083118,
Drag (Kalmar kommun),Drag,Kalmar,536,154,347,tätort,56.7794334,16.4202633,drag
Drottningholm (Ekerö kommun),Drottningholm,Ekerö,313,52,597,tätort,59.324925,17.8873327,holm
Drottningskär (Karlskrona kommun),Drottningskär,Karlskrona,507,237,214,tätort,56.1155969,15.5597974,
Drängsmark (Skellefteå kommun),Drängsmark,Skellefteå,334,63,533,tätort,64.9179693,20.9545824,mark
Dunö (Kalmar kommun),Dunö,Kalmar,414,60,693,tätort,56.6340914,16.2657942,ö
Duvesjön (Kungälv kommun),Duvesjön,Kungälv,310,47,664,tätort,57.9531858,12.0186317,sjön
Dvärsätt (Krokom kommun),Dvärsätt,Krokom,754,131,576,tätort,63.3024114,14.4731993,sätt
Dyvelsten (Forshaga kommun),Dyvelsten,Forshaga,252,46,552,tätort,59.5140428,13.4381483,sten
Dösjebro (Kävlinge kommun),Dösjebro,Kävlinge,930,70,1319,tätort,55.8199778,13.0304533,bro
Ed (Dals-Ed kommun),Ed,Dals-Ed,3066,354,865,tätort,58.9125825,11.9340137,ed
Eda glasbruk (Eda kommun),Eda glasbruk,Eda,220,91,241,tätort,59.9213356,12.2633766,bruk
Edane (Arvika kommun),Edane,Arvika,678,176,385,tätort,59.62982,12.8229215,
Edeby (Knivsta kommun),Edeby,Knivsta,252,57,446,tätort,59.7132351,17.7244047,by
Edsbro (Norrtälje kommun),Edsbro,Norrtälje,595,152,392,tätort,59.8951281,18.4923786,bro
Edsbruk (Västervik kommun),Edsbruk,Västervik,371,72,515,tätort,58.0195774,16.4674596,bruk
Edsbyn (Ovanåker kommun),Edsbyn,Ovanåker,4293,523,820,tätort,61.3774428,15.8181755,byn
Edsgatan (Karlstad kommun),Edsgatan,Karlstad,563,130,432,tätort,59.427017,13.5552192,tan
Långenäs (Karlstad kommun),Långenäs,Karlstad,563,130,432,tätort,59.4242285,13.5768286,näs
Edsvalla (Karlstad kommun),Edsvalla,Karlstad,736,81,911,tätort,59.4369756,13.2103442,valla
Edsvalla Övreet (Karlstad kommun),Edsvalla Övreet,Karlstad,251,33,761,tätort,,,
Eggby (Skara kommun),Eggby,Skara,222,48,467,tätort,58.4339651,13.6451126,by
Ekeby (Ekerö kommun),Ekeby,Ekerö,202,123,164,tätort,59.3624948,17.5986687,by
Ekeby (Södertälje kommun),Ekeby,Södertälje,983,64,1534,tätort,59.2547514,17.5200234,by
Ekeby (Bjuv kommun),Ekeby,Bjuv,3369,385,875,tätort,55.9994724,12.9651021,by
Ekeby (Kumla kommun),Ekeby,Kumla,601,138,435,tätort,59.1642319,15.2665406,by
Ekeby-Almby (Örebro kommun),Ekeby-Almby,Örebro,2143,202,1061,tätort,59.2584695,15.3368752,by
Ekedalen (Tidaholm kommun),Ekedalen,Tidaholm,483,73,665,tätort,58.1973862,13.8404332,dalen
Ekenhaga (Värnamo kommun),Ekenhaga,Värnamo,208,20,1047,tätort,,,haga
Ekenässjön (Vetlanda kommun),Ekenässjön,Vetlanda,1507,199,759,tätort,57.4918386,15.0209543,sjön
Ekerö (Ekerö kommun),Ekerö,Ekerö,12071,617,1957,tätort,59.30024455,17.678070867816203,ö
Ekerö sommarstad (Ekerö kommun),Ekerö sommarstad,Ekerö,614,94,652,tätort,59.2748822,17.7324083,stad
Eket (Örkelljunga kommun),Eket,Örkelljunga,383,101,378,tätort,56.2475542,13.1913591,
Ekshärad (Hagfors kommun),Ekshärad,Hagfors,995,157,633,tätort,60.1696444,13.5058575,härad
Eksjö (Eksjö kommun),Eksjö,Eksjö,10652,822,1295,tätort,57.6674439,14.9735595,sjö
Ekskogen (Vallentuna kommun),Ekskogen,Vallentuna,287,62,466,tätort,59.6414357,18.2311249,skogen
Älgeby (Vallentuna kommun),Älgeby,Vallentuna,352,215,163,tätort,59.6159338,18.3880402,by
Långsjötorp (Vallentuna kommun),Långsjötorp,Vallentuna,352,215,163,tätort,59.5943123,18.3478048,torp
Eksund (Norrköping kommun),Eksund,Norrköping,501,72,700,tätort,58.585982,16.0918873,sund
Ekängen (Linköping kommun),Ekängen,Linköping,2753,177,1553,tätort,58.4736278,15.6389814,ängen
Eldsberga (Halmstad kommun),Eldsberga,Halmstad,751,105,715,tätort,56.5989253,12.9818682,berga
Ellös (Orust kommun),Ellös,Orust,1068,229,466,tätort,58.1799703,11.4687475,
Emmaboda (Emmaboda kommun),Emmaboda,Emmaboda,5035,588,856,tätort,56.6308333,15.5406619,boda
Emmaljunga (Hässleholm kommun),Emmaljunga,Hässleholm,289,92,315,tätort,56.3998263,13.6492329,ljunga
Emsfors (Oskarshamn kommun),Emsfors,Oskarshamn,320,70,456,tätort,57.1458519,16.4607831,fors
Emtunga (Vara kommun),Emtunga,Vara,309,40,764,tätort,58.2552372,12.9990743,
Enbacka (Säter kommun),Enbacka,Säter,1579,207,762,tätort,60.4118034,15.6121913,backa
Eneryda (Älmhult kommun),Eneryda,Älmhult,343,67,515,tätort,56.7038082,14.3383773,ryda
Enhagen-Ekbacken (Västerås kommun),Enhagen-Ekbacken,Västerås,1091,75,1455,tätort,59.5656207,16.5318306,backen
Enköping (Enköping kommun),Enköping,Enköping,23988,1126,2131,tätort,59.6356115,17.077856,köping
Enstaberga (Nyköping kommun),Enstaberga,Nyköping,439,59,749,tätort,58.7514681,16.8545325,berga
Enviken (Falu kommun),Enviken,Falu,889,329,270,tätort,60.8102331,15.7544377,viken
Enånger (Hudiksvall kommun),Enånger,Hudiksvall,629,160,394,tätort,61.5474691,17.0022468,ånger
Eriksmåla (Emmaboda kommun),Eriksmåla,Emmaboda,208,93,223,tätort,56.7368403,15.4736374,måla
Eringsboda (Ronneby kommun),Eringsboda,Ronneby,289,77,375,tätort,56.4401253,15.3625015,boda
Ersmark (Umeå kommun),Ersmark,Umeå,1628,147,1105,tätort,63.8844704,20.3203783,mark
Ersmark (Skellefteå kommun),Ersmark,Skellefteå,859,123,697,tätort,64.8483889,20.8981835,mark
Ersnäs (Luleå kommun),Ersnäs,Luleå,487,152,320,tätort,65.5290529,21.7946331,näs
Eskilsby (Härryda kommun),Eskilsby,Härryda,256,87,293,tätort,57.6161857,12.2832508,by
Snugga (Härryda kommun),Snugga,Härryda,256,87,293,tätort,57.6167402,12.2968603,
Eskilstuna (Eskilstuna kommun),Eskilstuna,Eskilstuna,70261,2992,2349,tätort,59.3717379,16.5051474,tuna
Eslöv (Eslöv kommun),Eslöv,Eslöv,19569,946,2068,tätort,55.8374959,13.3036265,löv
Evertsberg (Älvdalen kommun),Evertsberg,Älvdalen,239,137,175,tätort,61.1351095,13.9590325,berg
Everöd (Kristianstad kommun),Everöd,Kristianstad,924,153,602,tätort,55.8993312,14.0976714,röd
Fagerfjäll (Tjörn kommun),Fagerfjäll,Tjörn,211,119,177,tätort,57.9857748,11.6570803,fjäll
Fagerhult (Habo kommun),Fagerhult,Habo,323,65,494,tätort,57.9979589,14.1191576,hult
Fagerhult (Högsby kommun),Fagerhult,Högsby,224,86,259,tätort,57.1477968,15.6636303,hult
Fagerhult (Uddevalla kommun),Fagerhult,Uddevalla,469,108,433,tätort,58.3169582,12.0859077,hult
Fagersanna (Tibro kommun),Fagersanna,Tibro,684,200,341,tätort,58.4681806,14.3007209,
Fagersta (Fagersta kommun),Fagersta,Fagersta,11978,727,1648,tätort,60.0038627,15.7906054,sta
Fagerås (Kil kommun),Fagerås,Kil,442,72,614,tätort,59.5198467,13.2226961,ås
Falerum (Åtvidaberg kommun),Falerum,Åtvidaberg,227,78,290,tätort,58.1437133,16.2063158,rum
Falkenberg (Falkenberg kommun),Falkenberg,Falkenberg,27301,2201,1240,tätort,56.904894,12.4912926,berg
Falköping (Falköping kommun),Falköping,Falköping,17828,916,1945,tätort,58.169655649999996,13.555486207422321,köping
Falla (Finspång kommun),Falla,Finspång,455,65,705,tätort,58.682822,15.7465107,la
Falun (Falu kommun),Falun,Falu,38476,2526,1523,tätort,60.6070068,15.6323059,
Farhult (Höganäs kommun),Farhult,Höganäs,329,103,319,tätort,56.2150287,12.7125297,hult
Fegen (Falkenberg kommun),Fegen,Falkenberg,241,70,345,tätort,57.1055836,13.0389032,
Fellingsbro (Lindesberg kommun),Fellingsbro,Lindesberg,1393,214,650,tätort,59.4343972,15.5890014,bro
Fengersfors (Åmål kommun),Fengersfors,Åmål,334,78,430,tätort,58.9949441,12.4639629,fors
Figeholm (Oskarshamn kommun),Figeholm,Oskarshamn,890,107,835,tätort,57.3767119,16.5522663,holm
Filipstad (Filipstad kommun),Filipstad,Filipstad,6477,599,1082,tätort,59.7135483,14.1680314,stad
Filsbäck (Lidköping kommun),Filsbäck,Lidköping,667,107,625,tätort,58.4907677,13.2459367,bäck
Finja (Hässleholm kommun),Finja,Hässleholm,593,129,459,tätort,56.1675684,13.689776,
Finkarby (Nykvarn kommun),Finkarby,Nykvarn,211,59,358,tätort,59.2248387,17.3082384,arby
Finnerödja (Laxå kommun),Finnerödja,Laxå,577,112,515,tätort,58.9285408,14.4411303,rödja
Finspång (Finspång kommun),Finspång,Finspång,13279,788,1684,tätort,58.70773,15.7758645,spång
Finsta (Norrtälje kommun),Finsta,Norrtälje,257,44,584,tätort,59.7369299,18.4920915,sta
Fiskebäckskil (Lysekil kommun),Fiskebäckskil,Lysekil,262,72,363,tätort,58.2456466,11.4566294,kil
Fisksätra (Nacka kommun),Fisksätra,Nacka,8334,101,8282,tätort,59.2921965,18.2537882,sätra
Fjugesta (Lekeberg kommun),Fjugesta,Lekeberg,2336,229,1022,tätort,59.1734088,14.8709494,sta
Fjälkinge (Kristianstad kommun),Fjälkinge,Kristianstad,1888,187,1011,tätort,56.0433855,14.2758479,inge
Fjällastorp (Bollebygd kommun),Fjällastorp,Bollebygd,238,77,309,tätort,57.6761642,12.5470138,torp
Fjällbacka (Tanum kommun),Fjällbacka,Tanum,858,168,511,tätort,58.5987546,11.2827802,backa
Fjärdhundra (Enköping kommun),Fjärdhundra,Enköping,943,112,839,tätort,59.7760701,16.9179368,
Fjärås (Kungsbacka kommun),Fjärås,Kungsbacka,2463,206,1198,tätort,57.4485155,12.1862316,ås
Fjärås station (Kungsbacka kommun),Fjärås station,Kungsbacka,221,70,315,tätort,57.4380548,12.1558698,
Flen (Flen kommun),Flen,Flen,6607,439,1503,tätort,59.0567823,16.5893,
Fleninge (Helsingborg kommun),Fleninge,Helsingborg,208,53,391,tätort,56.1083353,12.7915362,inge
Flerohopp (Nybro kommun),Flerohopp,Nybro,212,51,417,tätort,56.822755,15.8768402,
Flisby (Nässjö kommun),Flisby,Nässjö,210,65,322,tätort,57.7847724,14.7964212,by
Fliseryd (Mönsterås kommun),Fliseryd,Mönsterås,752,138,544,tätort,57.1241074,16.2631299,ryd
Floby (Falköping kommun),Floby,Falköping,1596,223,717,tätort,58.138443,13.3362213,by
Flurkmark (Umeå kommun),Flurkmark,Umeå,210,45,471,tätort,63.9824036,20.2366005,mark
Flygsfors (Nybro kommun),Flygsfors,Nybro,221,61,360,tätort,56.8394149,15.7791654,fors
Flyinge (Eslöv kommun),Flyinge,Eslöv,1016,94,1083,tätort,55.7534529,13.3685462,inge
Flyksnäs (Mark kommun),Flyksnäs,Mark,207,57,361,tätort,57.6080933,12.377603,näs
Flädie (Lomma kommun),Flädie,Lomma,271,39,699,tätort,55.7252694,13.0719827,ie
Folkärna (Avesta kommun),Folkärna,Avesta,267,138,193,tätort,60.1528413,16.3143882,
Fornåsa (Motala kommun),Fornåsa,Motala,448,59,764,tätort,58.4791162,15.2279647,åsa
Fors (Avesta kommun),Fors,Avesta,778,142,549,tätort,60.2064905,16.3137369,fors
Forsbacka (Gävle kommun),Forsbacka,Gävle,1724,186,924,tätort,60.6153399,16.8949803,backa
Forserum (Nässjö kommun),Forserum,Nässjö,2113,194,1090,tätort,57.699733,14.4723521,rum
Forshaga (Forshaga kommun),Forshaga,Forshaga,6439,548,1174,tätort,59.5290618,13.4826031,haga
Forsheda (Värnamo kommun),Forsheda,Värnamo,1509,171,882,tätort,57.1678551,13.8301364,eda
Forssjö (Katrineholm kommun),Forssjö,Katrineholm,534,53,1015,tätort,58.955414,16.2926848,sjö
Forsvik (Karlsborg kommun),Forsvik,Karlsborg,344,83,412,tätort,58.5804973,14.4306328,vik
Fotö (Öckerö kommun),Fotö,Öckerö,637,43,1482,tätort,57.67008115,11.654583868789242,ö
Fredriksberg (Ludvika kommun),Fredriksberg,Ludvika,345,75,460,tätort,60.1398367,14.3762452,berg
Fredriksdal (Nässjö kommun),Fredriksdal,Nässjö,307,62,496,tätort,57.6202427,14.6030921,dal
Fredriksfors (Hudiksvall kommun),Fredriksfors,Hudiksvall,205,91,224,tätort,61.787858,16.6127533,fors
Freluga (Bollnäs kommun),Freluga,Bollnäs,213,62,344,tätort,61.3275255,16.2969749,
Fridlevstad (Karlskrona kommun),Fridlevstad,Karlskrona,697,110,634,tätort,56.2697952,15.5421062,stad
Friggesund (Hudiksvall kommun),Friggesund,Hudiksvall,559,76,735,tätort,61.8964248,16.5462606,sund
Frillesås (Kungsbacka kommun),Frillesås,Kungsbacka,3227,481,671,tätort,57.3172804,12.1767467,ås
Frinnaryd (Aneby kommun),Frinnaryd,Aneby,227,56,409,tätort,57.9340883,14.8208622,ryd
Fristad (Borås kommun),Fristad,Borås,5755,762,755,tätort,57.8238811,13.0100197,stad
Fritsla (Mark kommun),Fritsla,Mark,2458,319,771,tätort,57.5518736,12.7865937,la
Frostkåge (Skellefteå kommun),Frostkåge,Skellefteå,224,74,304,tätort,64.8689614,21.0070101,
Frufällan (Borås kommun),Frufällan,Borås,1303,191,680,tätort,57.7772401,12.9767238,
Främmestad (Essunga kommun),Främmestad,Essunga,396,70,566,tätort,58.2333229,12.6662924,stad
Frändefors (Vänersborg kommun),Frändefors,Vänersborg,645,100,647,tätort,58.5000567,12.2782435,fors
Fränsta (Ånge kommun),Fränsta,Ånge,2119,609,348,tätort,62.4991238,16.170082,sta
Frödinge (Vimmerby kommun),Frödinge,Vimmerby,319,69,462,tätort,57.6995864,16.0050478,inge
Frösakull (Halmstad kommun),Frösakull,Halmstad,2492,402,620,tätort,56.6695906,12.738781,
Frövi (Lindesberg kommun),Frövi,Lindesberg,2534,252,1006,tätort,59.4661989,15.3650698,vi
Funbo (Uppsala kommun),Funbo,Uppsala,310,96,324,tätort,59.8567841,17.8565773,bo
Funäsdalen (Härjedalen kommun),Funäsdalen,Härjedalen,1003,263,382,tätort,62.546067,12.5420156,dalen
Furuby (Växjö kommun),Furuby,Växjö,387,62,627,tätort,56.8533661,15.0317647,by
Furudal (Rättvik kommun),Furudal,Rättvik,436,131,332,tätort,61.1707998,15.1366774,dal
Furulund (Kävlinge kommun),Furulund,Kävlinge,4637,277,1672,tätort,55.7762345,13.0911987,lund
Furusjö (Habo kommun),Furusjö,Habo,351,63,560,tätort,57.9302906,13.9609711,sjö
Fågelfors (Högsby kommun),Fågelfors,Högsby,447,138,325,tätort,57.2073802,15.8436619,fors
Fågelmara (Karlskrona kommun),Fågelmara,Karlskrona,386,85,456,tätort,56.2600689,15.9475083,
Fågelsta (Motala kommun),Fågelsta,Motala,291,56,521,tätort,58.4586281,15.0433733,sta
Fågelvikshöjden (Värmdö kommun),Fågelvikshöjden,Värmdö,2261,579,390,tätort,59.2805969,18.4477979,
Fåker (Östersund kommun),Fåker,Östersund,256,59,433,tätort,62.9919294,14.577169,åker
Fårbo (Oskarshamn kommun),Fårbo,Oskarshamn,537,87,615,tätort,57.3839716,16.484591,bo
Fårösund (Region Gotland kommun),Fårösund,Region Gotland,880,246,358,tätort,57.8630332,19.0508902,sund
Färgelanda (Färgelanda kommun),Färgelanda,Färgelanda,1923,249,771,tätort,58.568258,11.9964749,landa
Färgens (Alingsås kommun),Färgens,Alingsås,286,137,208,tätort,,,
Färila (Ljusdal kommun),Färila,Ljusdal,1376,291,472,tätort,61.7981499,15.8437651,la
Färjestaden (Mörbylånga kommun),Färjestaden,Mörbylånga,5869,672,874,tätort,56.6517105,16.4721747,staden
Färlöv (Kristianstad kommun),Färlöv,Kristianstad,1540,199,775,tätort,56.0721273,14.0859752,löv
Föllinge (Krokom kommun),Föllinge,Krokom,472,174,271,tätort,63.6722856,14.6159616,inge
Förslöv (Båstad kommun),Förslöv,Båstad,2396,283,846,tätort,56.3546778,12.8009706,löv
Gagnef (Gagnef kommun),Gagnef,Gagnef,1230,365,337,tätort,60.5922453,15.0756833,
Gamleby (Västervik kommun),Gamleby,Västervik,2837,361,786,tätort,57.8998238,16.4082564,by
Gammelgården (Kalix kommun),Gammelgården,Kalix,278,66,421,tätort,65.8819648,23.0411935,gården
Gammelstaden (Luleå kommun),Gammelstaden,Luleå,4893,552,886,tätort,,,staden
Gantofta (Helsingborg kommun),Gantofta,Helsingborg,1479,105,1406,tätort,55.9816311,12.816393703946199,tofta
Garpenberg (Hedemora kommun),Garpenberg,Hedemora,504,120,419,tätort,60.3116716,16.195085,berg
Garphyttan (Örebro kommun),Garphyttan,Örebro,1544,150,1028,tätort,59.3022042,14.949523,tan
Geijersholm (Hagfors kommun),Geijersholm,Hagfors,208,31,676,tätort,60.0677337,13.7299453,holm
Gemla (Växjö kommun),Gemla,Växjö,1128,190,594,tätort,56.8700366,14.6489037,la
Genarp (Lund kommun),Genarp,Lund,2956,196,1507,tätort,55.5995193,13.3995293,arp
Genevad (Laholm kommun),Genevad,Laholm,704,83,851,tätort,56.5690841,13.0328835,vad
Gessie villastad (Vellinge kommun),Gessie villastad,Vellinge,533,54,982,tätort,55.4974,12.956839,stad
Gesunda (Mora kommun),Gesunda,Mora,271,195,139,tätort,60.8870179,14.550466,sunda
Getinge (Halmstad kommun),Getinge,Halmstad,1963,239,821,tätort,56.816882,12.7314117,inge
Getterön (Varberg kommun),Getterön,Varberg,345,131,264,tätort,57.1200025,12.2123793,ön
Gideå (Örnsköldsvik kommun),Gideå,Örnsköldsvik,269,67,404,tätort,63.4794032,18.9768347,eå
Gimo (Östhammar kommun),Gimo,Östhammar,2782,329,845,tätort,60.167736,18.1886179,mo
Gislaved (Gislaved kommun),Gislaved,Gislaved,10389,693,1498,tätort,57.3019768,13.5392235,ved
Gissebo (Jönköping kommun),Gissebo,Jönköping,232,66,351,tätort,57.8383411,14.272612,bo
Gistad (Linköping kommun),Gistad,Linköping,303,55,549,tätort,58.466903,15.8947255,stad
Gladö kvarn (Huddinge kommun),Gladö kvarn,Huddinge,687,141,488,tätort,59.1941928,17.9854914,kvarn
Glanshammar (Örebro kommun),Glanshammar,Örebro,787,120,657,tätort,59.3182586,15.4007605,hammar
Glemmingebro (Ystad kommun),Glemmingebro,Ystad,425,55,775,tätort,55.451134,14.0237947,bro
Glimåkra (Östra Göinge kommun),Glimåkra,Östra Göinge,1567,208,753,tätort,56.3037116,14.1338285,åkra
Glommen (Falkenberg kommun),Glommen,Falkenberg,1064,180,593,tätort,56.9328202,12.3647214,
Glommersträsk (Arvidsjaur kommun),Glommersträsk,Arvidsjaur,200,87,229,tätort,65.2608365,19.6350222,träsk
Glumslöv (Landskrona kommun),Glumslöv,Landskrona,2265,131,1732,tätort,55.9416984,12.8104863,löv
Glömminge (Mörbylånga kommun),Glömminge,Mörbylånga,346,139,249,tätort,56.7182677,16.5348815,inge
Gnarp (Nordanstig kommun),Gnarp,Nordanstig,1183,289,409,tätort,62.080084799999995,17.593142530599458,arp
Gnesta (Gnesta kommun),Gnesta,Gnesta,6248,393,1588,tätort,59.0454209,17.30897,sta
Gnosjö (Gnosjö kommun),Gnosjö,Gnosjö,4530,534,848,tätort,57.3569728,13.7350863,sjö
Gonäs (Ludvika kommun),Gonäs,Ludvika,331,120,275,tätort,60.1485526,15.0943472,näs
Granby (Sigtuna kommun),Granby,Sigtuna,299,52,577,tätort,59.6575628,17.632342,by
Graversfors (Norrköping kommun),Graversfors,Norrköping,574,148,388,tätort,58.6968323,16.1500961,fors
Grebbestad (Tanum kommun),Grebbestad,Tanum,1939,502,386,tätort,58.6920072,11.2542334,stad
Grebo (Åtvidaberg kommun),Grebo,Åtvidaberg,1085,115,941,tätort,58.3021427,15.8716716,bo
Grevie (Båstad kommun),Grevie,Båstad,949,192,495,tätort,56.3929454,12.7807516,ie
Grillby (Enköping kommun),Grillby,Enköping,1079,118,911,tätort,59.6254629,17.2590923,by
Grimslöv (Alvesta kommun),Grimslöv,Alvesta,623,85,735,tätort,56.7388938,14.542548,löv
Grimstorp (Nässjö kommun),Grimstorp,Nässjö,331,50,662,tätort,57.5541893,14.7005184,torp
Grimsås (Tranemo kommun),Grimsås,Tranemo,727,112,651,tätort,57.4848482,13.5519542,ås
Gripenberg (Tranås kommun),Gripenberg,Tranås,285,56,508,tätort,57.9932789,14.8532533,berg
Grisslehamn (Norrtälje kommun),Grisslehamn,Norrtälje,416,454,92,tätort,60.0981769,18.8058527,hamn
Gropen (Lekeberg kommun),Gropen,Lekeberg,209,80,262,tätort,59.1620627,14.8305666,
Grums (Grums kommun),Grums,Grums,5068,512,989,tätort,59.3518935,13.1056834,
Grundsund (Lysekil kommun),Grundsund,Lysekil,649,142,458,tätort,58.2133642,11.4192441,sund
Grycksbo (Falu kommun),Grycksbo,Falu,1935,327,592,tätort,60.6892908,15.4875998,bo
Gryt (Valdemarsvik kommun),Gryt,Valdemarsvik,356,286,125,tätort,58.1875756,16.8033234,
Grytgöl (Finspång kommun),Grytgöl,Finspång,309,86,360,tätort,58.8018612,15.555081,
Grythyttan (Hällefors kommun),Grythyttan,Hällefors,824,138,596,tätort,59.7056246,14.5367071,tan
Gråbo (Lerum kommun),Gråbo,Lerum,6485,557,1164,tätort,57.838561,12.2991979,bo
Gräddö (Norrtälje kommun),Gräddö,Norrtälje,587,588,100,tätort,59.7641685,19.0321376,ö
Gräfsnäs (Alingsås kommun),Gräfsnäs,Alingsås,395,93,426,tätort,58.0810509,12.492747,näs
Grängesberg (Ludvika kommun),Grängesberg,Ludvika,2180,249,876,tätort,60.0751646,15.0067482,berg
Gränna (Jönköping kommun),Gränna,Jönköping,2662,177,1506,tätort,58.0250583,14.4673146,
Grännäs (Valdemarsvik kommun),Grännäs,Valdemarsvik,200,16,1275,tätort,58.1947111,16.6060845,näs
Gränum (Olofström kommun),Gränum,Olofström,251,59,426,tätort,56.2298724,14.6065541,um
Grästorp (Grästorp kommun),Grästorp,Grästorp,3087,262,1177,tätort,58.3328302,12.679212,torp
Grödby (Nynäshamn kommun),Grödby,Nynäshamn,600,106,568,tätort,59.0517466,17.8712612,by
Grönalid (Vansbro kommun),Grönalid,Vansbro,419,82,508,tätort,60.5038009,14.2341171,lid
Grönskan (Värmdö kommun),Grönskan,Värmdö,274,191,143,tätort,59.24483975,18.459663229187132,
Vedhamn (Värmdö kommun),Vedhamn,Värmdö,274,191,143,tätort,59.2381307,18.46519221012668,hamn
Baldersnäs (Värmdö kommun),Baldersnäs,Värmdö,274,191,143,tätort,59.227713449999996,18.481724147210166,näs
Gualöv (Bromölla kommun),Gualöv,Bromölla,497,86,581,tätort,56.0481919,14.4198412,löv
Gudhem (Falköping kommun),Gudhem,Falköping,439,41,1058,tätort,58.2269171,13.5671021,hem
Gullbrandstorp (Halmstad kommun),Gullbrandstorp,Halmstad,1733,144,1202,tätort,56.7070571,12.7360424,torp
Gullbranna (Halmstad kommun),Gullbranna,Halmstad,664,61,1091,tätort,56.5890625,12.9475984,
Gulleråsen (Rättvik kommun),Gulleråsen,Rättvik,386,265,146,tätort,61.0597037,15.1855802,åsen
Gullringen (Vimmerby kommun),Gullringen,Vimmerby,515,124,416,tätort,57.8000572,15.717278,
Gullspång (Gullspång kommun),Gullspång,Gullspång,1550,300,516,tätort,58.985397,14.0962517,spång
Gunnarskog (Arvika kommun),Gunnarskog,Arvika,261,76,343,tätort,59.8135289,12.5723322,skog
Gunnarstorp (Bjuv kommun),Gunnarstorp,Bjuv,394,42,944,tätort,56.0989992,12.9220395,torp
Gunnebo (Västervik kommun),Gunnebo,Västervik,1062,144,738,tätort,57.7224214,16.5275032,bo
Gunsta (Uppsala kommun),Gunsta,Uppsala,618,93,665,tätort,59.8541639,17.8336423,sta
Gusselby (Lindesberg kommun),Gusselby,Lindesberg,286,81,353,tätort,59.6453751,15.2185354,by
Gustavsberg (Värmdö kommun),Gustavsberg,Värmdö,23467,1417,1657,tätort,59.3256235,18.388514,berg
Gusum (Valdemarsvik kommun),Gusum,Valdemarsvik,1182,127,931,tätort,58.2733429,16.5015962,um
Gyttorp (Nora kommun),Gyttorp,Nora,711,134,531,tätort,59.504923,14.9666246,torp
Gånghester (Borås kommun),Gånghester,Borås,2539,284,893,tätort,57.701552,13.0235957,hester
Gårdby (Mörbylånga kommun),Gårdby,Mörbylånga,279,75,373,tätort,56.6043533,16.6425597,by
Gårdskär (Älvkarleby kommun),Gårdskär,Älvkarleby,352,122,287,tätort,60.6124555,17.5775118,
Gårdstånga (Eslöv kommun),Gårdstånga,Eslöv,398,47,850,tätort,55.7641957,13.3224966,
Gåvsta (Uppsala kommun),Gåvsta,Uppsala,557,55,1012,tätort,59.9426901,17.8755705,sta
Gäddede (Strömsund kommun),Gäddede,Strömsund,320,78,412,tätort,64.5027893,14.1461393,
Gällivare (Gällivare kommun),Gällivare,Gällivare,10402,861,1208,tätort,67.135243,20.6604843,vare
Gällstad (Ulricehamn kommun),Gällstad,Ulricehamn,573,96,595,tätort,57.6690559,13.4331892,stad
Gällö (Bräcke kommun),Gällö,Bräcke,722,120,602,tätort,62.9183798,15.2494293,ö
Gängletorp (Karlskrona kommun),Gängletorp,Karlskrona,519,107,483,tätort,56.1708369,15.7399404,torp
Gärds Köpinge (Kristianstad kommun),Gärds Köpinge,Kristianstad,924,114,809,tätort,55.9463873,14.1560242,köpinge
Gärsnäs (Simrishamn kommun),Gärsnäs,Simrishamn,1093,110,997,tätort,55.5459169,14.1853336,näs
Gävle (Gävle kommun),Gävle,Gävle,76886,4059,1894,tätort,60.6750132,17.1467019,
Göta (Lilla Edet kommun),Göta,Lilla Edet,1093,143,765,tätort,58.1080405,12.1497805,ta
Göteborg (Göteborg kommun),Göteborg,Göteborg,592042,23386,2532,tätort,57.7072326,11.9670171,borg
Götene (Götene kommun),Götene,Götene,5078,468,1085,tätort,58.5280626,13.4921229,ene
Götlunda (Arboga kommun),Götlunda,Arboga,269,46,586,tätort,59.3541468,15.6677162,lunda
Habo (Habo kommun),Habo,Habo,8373,596,1404,tätort,57.9092463,14.0743562,bo
Hackås (Berg kommun),Hackås,Berg,535,142,376,tätort,62.9239388,14.5186954,ås
Haga (Enköping kommun),Haga,Enköping,282,37,759,tätort,59.7308853,17.1554449,haga
Hagby (Kalmar kommun),Hagby,Kalmar,824,269,307,tätort,56.5542238,16.1805219,by
Hagfors (Hagfors kommun),Hagfors,Hagfors,4848,635,764,tätort,60.0320521,13.7002392,fors
Hagge (Smedjebacken kommun),Hagge,Smedjebacken,294,46,640,tätort,60.1245515,15.2812628,
Hakkas (Gällivare kommun),Hakkas,Gällivare,356,128,279,tätort,66.9164587,21.566148,
Halla Heberg (Kungsbacka kommun),Halla Heberg,Kungsbacka,1710,398,429,tätort,57.4652848,11.9881661,berg
Hallabro (Ronneby kommun),Hallabro,Ronneby,269,61,439,tätort,56.3901626,15.1026861,bro
Hallen (Åre kommun),Hallen,Åre,233,90,258,tätort,63.1770957,14.094435,
Hallsberg (Hallsberg kommun),Hallsberg,Hallsberg,8457,976,867,tätort,59.0660302,15.1089181,berg
Hallstahammar (Hallstahammar kommun),Hallstahammar,Hallstahammar,9835,582,1689,tätort,59.6134488,16.2301613,hammar
Hallstavik (Norrtälje kommun),Hallstavik,Norrtälje,4723,511,925,tätort,60.0517603,18.5970171,vik
Halltorp (Kalmar kommun),Halltorp,Kalmar,291,69,421,tätort,56.4997087,16.1030741,torp
Halmstad (Halmstad kommun),Halmstad,Halmstad,69537,3668,1896,tätort,56.6739826,12.8574827,stad
Halvarsgårdarna (Borlänge kommun),Halvarsgårdarna,Borlänge,296,70,424,tätort,60.4059609,15.3867427,
Hamburgsund (Tanum kommun),Hamburgsund,Tanum,709,139,510,tätort,58.5597964,11.2638099,sund
Hammar (Kristianstad kommun),Hammar,Kristianstad,2874,246,1169,tätort,56.0319891,14.204713,hammar
Hammar (Askersund kommun),Hammar,Askersund,269,66,407,tätort,58.8207447,14.9567441,hammar
Hammarby (Sandviken kommun),Hammarby,Sandviken,529,103,516,tätort,60.545057,16.5739451,arby
Hammarstrand (Ragunda kommun),Hammarstrand,Ragunda,1173,280,418,tätort,63.1085771,16.3558429,strand
Hammenhög (Simrishamn kommun),Hammenhög,Simrishamn,933,133,702,tätort,55.5032469,14.1521443,hög
Hammerdal (Strömsund kommun),Hammerdal,Strömsund,1101,406,271,tätort,63.5824698,15.3541733,dal
Hampetorp (Örebro kommun),Hampetorp,Örebro,310,134,232,tätort,59.1400685,15.6683533,torp
Hanaskog (Östra Göinge kommun),Hanaskog,Östra Göinge,1461,144,1017,tätort,56.1590645,14.0934119,skog
Haparanda (Haparanda kommun),Haparanda,Haparanda,6712,596,1126,tätort,65.835667,24.1357213,
Hara (Östersund kommun),Hara,Östersund,239,103,232,tätort,63.0392511,14.4627053,hara
Harads (Boden kommun),Harads,Boden,453,83,546,tätort,66.0885158,20.9441733,
Harbo (Heby kommun),Harbo,Heby,792,125,635,tätort,60.1083678,17.2099617,bo
Hargshamn (Östhammar kommun),Hargshamn,Östhammar,298,106,280,tätort,60.1677683,18.4849255,hamn
Harkie (Västerås kommun),Harkie,Västerås,281,114,247,tätort,59.5318908,16.714112,ie
Harkskär (Gävle kommun),Harkskär,Gävle,443,150,295,tätort,60.7676279,17.3214672,
Utvalnäs (Gävle kommun),Utvalnäs,Gävle,443,150,295,tätort,60.7517099,17.3461476,näs
Harlösa (Eslöv kommun),Harlösa,Eslöv,794,95,836,tätort,55.7176112,13.5256101,lösa
Harmånger (Nordanstig kommun),Harmånger,Nordanstig,586,108,542,tätort,61.9276307,17.2173659,ånger
Harplinge (Halmstad kommun),Harplinge,Halmstad,1567,147,1063,tätort,56.7443478,12.7249152,inge
Hartungviken (Sundsvall kommun),Hartungviken,Sundsvall,454,250,181,tätort,62.3938378,17.5174321,viken
Spikarna (Sundsvall kommun),Spikarna,Sundsvall,454,250,181,tätort,62.3635173,17.5227654,
Hassela (Nordanstig kommun),Hassela,Nordanstig,349,91,384,tätort,62.1082589,16.7114675,la
Hasselfors (Laxå kommun),Hasselfors,Laxå,420,95,440,tätort,59.0834596,14.6549909,fors
Hasslarp (Helsingborg kommun),Hasslarp,Helsingborg,600,60,992,tätort,56.1373044,12.8134488,arp
Hasslö (Karlskrona kommun),Hasslö,Karlskrona,1639,363,452,tätort,56.1097719,15.465959444628618,ö
Hasslöv (Laholm kommun),Hasslöv,Laholm,265,53,502,tätort,56.4130867,13.006068,löv
Havdhem (Region Gotland kommun),Havdhem,Region Gotland,265,95,278,tätort,57.1616007,18.3320376,hem
Haverdal (Halmstad kommun),Haverdal,Halmstad,1741,359,485,tätort,56.7283513,12.6708717,dal
Havsbaden (Ängelholm kommun),Havsbaden,Ängelholm,612,95,645,tätort,56.2599913,12.8394126,
Heberg (Falkenberg kommun),Heberg,Falkenberg,476,72,664,tätort,56.8800586,12.6232642,berg
Heby (Heby kommun),Heby,Heby,2705,386,701,tätort,59.9416226,16.857584,by
Hedared (Borås kommun),Hedared,Borås,336,74,454,tätort,57.8085914,12.7527785,red
Hede (Härjedalen kommun),Hede,Härjedalen,833,268,311,tätort,62.4193436,13.5166777,
Hedekas (Munkedal kommun),Hedekas,Munkedal,421,95,442,tätort,58.6449936,11.7800371,
Hedemora (Hedemora kommun),Hedemora,Hedemora,7605,586,1298,tätort,60.2785997,15.9870293,mora
Heden (Vansbro kommun),Heden,Vansbro,355,205,173,tätort,,,heden
Skansbacken (Vansbro kommun),Skansbacken,Vansbro,355,205,173,tätort,60.4477224,14.4802047,backen
Hedenäset (Övertorneå kommun),Hedenäset,Övertorneå,222,138,160,tätort,66.2355171,23.6779344,
Hedeskoga (Ystad kommun),Hedeskoga,Ystad,262,20,1285,tätort,55.4511826,13.7973243,skoga
Hedesunda (Gävle kommun),Hedesunda,Gävle,1076,143,752,tätort,60.3940251,17.006446,sunda
Hedkärra (Fagersta kommun),Hedkärra,Fagersta,208,55,376,tätort,59.9666619,15.7701285,
Hedlunda (Lycksele kommun),Hedlunda,Lycksele,223,55,404,tätort,64.5381169,18.7204961,lunda
Helgö (Ekerö kommun),Helgö,Ekerö,296,99,299,tätort,59.28112325,17.675484469099978,ö
Helsingborg (Helsingborg kommun),Helsingborg,Helsingborg,110520,4103,2694,tätort,56.0441984,12.7040684,borg
Hemavan (Storuman kommun),Hemavan,Storuman,281,198,142,tätort,65.8152777,15.08528,
Hemmestorp (Sjöbo kommun),Hemmestorp,Sjöbo,393,114,344,tätort,55.6287794,13.5527438,torp
Hemmingsmark (Piteå kommun),Hemmingsmark,Piteå,369,85,434,tätort,65.2229514,21.2823411,mark
Hemse (Region Gotland kommun),Hemse,Region Gotland,1709,229,747,tätort,57.2401493,18.3800194,
Henån (Orust kommun),Henån,Orust,2294,490,469,tätort,58.2333818,11.6807789,
Herrljunga (Herrljunga kommun),Herrljunga,Herrljunga,4095,386,1060,tätort,58.0783609,13.0257241,ljunga
Herrskog (Kramfors kommun),Herrskog,Kramfors,253,66,384,tätort,62.9166,18.0276863,skog
Herräng (Norrtälje kommun),Herräng,Norrtälje,381,189,202,tätort,60.1294737,18.647286,äng
Herstadberg (Norrköping kommun),Herstadberg,Norrköping,234,28,845,tätort,58.628076,16.1753196,berg
Hestra (Ydre kommun),Hestra,Ydre,481,79,609,tätort,57.9567356,15.0740683,hestra
Hestra (Gislaved kommun),Hestra,Gislaved,1374,210,656,tätort,57.4429883,13.5944709,hestra
Hillared (Svenljunga kommun),Hillared,Svenljunga,649,109,594,tätort,57.6331988,13.1616838,red
Hillerstorp (Gnosjö kommun),Hillerstorp,Gnosjö,1790,244,733,tätort,57.3144769,13.8912871,torp
Hilleshögby (Ekerö kommun),Hilleshögby,Ekerö,278,82,340,tätort,,,by
Hillsta (Sandviken kommun),Hillsta,Sandviken,269,70,386,tätort,60.6072347,16.6506468,sta
Se (Sandviken kommun),Se,Sandviken,269,70,386,tätort,60.6025467,16.6502433,
Himle (Varberg kommun),Himle,Varberg,280,50,557,tätort,57.073175,12.3667501,
Hindås (Härryda kommun),Hindås,Härryda,2974,489,608,tätort,57.7028166,12.4511882,ås
Hishult (Laholm kommun),Hishult,Laholm,358,96,372,tätort,56.4282532,13.3122044,hult
Hissjö (Umeå kommun),Hissjö,Umeå,458,109,419,tätort,63.9395184,20.1563039,sjö
Hissmofors (Krokom kommun),Hissmofors,Krokom,315,110,287,tätort,63.3274027,14.4810545,fors
Hittarp (Helsingborg kommun),Hittarp,Helsingborg,4664,234,1994,tätort,56.0983313,12.6388067,arp
Hjo (Hjo kommun),Hjo,Hjo,6349,501,1266,tätort,58.3012958,14.2879244,
Hjorted (Västervik kommun),Hjorted,Västervik,333,65,512,tätort,57.6205904,16.3030101,ed
Hjortkvarn (Hallsberg kommun),Hjortkvarn,Hallsberg,253,85,297,tätort,58.9005609,15.4344844,kvarn
Hjortnäs (Leksand kommun),Hjortnäs,Leksand,282,203,139,tätort,60.7949183,14.9674658,näs
Hjortsberga (Alvesta kommun),Hjortsberga,Alvesta,245,63,391,tätort,56.9142971,14.453907,berga
Hjälm (Kungsbacka kommun),Hjälm,Kungsbacka,273,33,831,tätort,57.4943662,12.1675006,
Hjälmared (Alingsås kommun),Hjälmared,Alingsås,310,50,623,tätort,57.8916507,12.550245,red
Hjälteby (Tjörn kommun),Hjälteby,Tjörn,213,58,365,tätort,58.0504337,11.7103733,by
Hjältevad (Eksjö kommun),Hjältevad,Eksjö,405,110,368,tätort,57.6291005,15.3431874,vad
Hjärnarp (Ängelholm kommun),Hjärnarp,Ängelholm,1177,213,553,tätort,56.3181622,12.9163844,arp
Hjärsås (Östra Göinge kommun),Hjärsås,Östra Göinge,208,28,737,tätort,56.2078662,14.1479642,ås
Hjärtum (Lilla Edet kommun),Hjärtum,Lilla Edet,386,57,678,tätort,58.1800719,12.1085224,um
Hjärup (Staffanstorp kommun),Hjärup,Staffanstorp,5527,220,2512,tätort,55.6698487,13.1399724,rup
Hofors (Hofors kommun),Hofors,Hofors,6230,632,986,tätort,60.5454521,16.2855241,fors
Hofterup (Kävlinge kommun),Hofterup,Kävlinge,3968,494,803,tätort,55.7983323,12.976774,erup
Hogstad (Mjölby kommun),Hogstad,Mjölby,226,45,498,tätort,58.3307684,15.0261941,stad
Hogstorp (Uddevalla kommun),Hogstorp,Uddevalla,389,62,628,tätort,58.3964735,11.7577872,torp
Hok (Vaggeryd kommun),Hok,Vaggeryd,668,90,740,tätort,57.5172107,14.2744352,
Holm (Halmstad kommun),Holm,Halmstad,800,116,691,tätort,56.7340431,12.8545367,holm
Holmeja (Svedala kommun),Holmeja,Svedala,230,24,962,tätort,55.5549328,13.273687,
Holmsjö (Karlskrona kommun),Holmsjö,Karlskrona,367,120,306,tätort,56.4202517,15.538952,sjö
Holmsund (Umeå kommun),Holmsund,Umeå,5971,775,771,tätort,63.7081736,20.3730033,sund
Holsbybrunn (Vetlanda kommun),Holsbybrunn,Vetlanda,822,120,685,tätort,57.4372796,15.1995143,brunn
Holsljunga (Svenljunga kommun),Holsljunga,Svenljunga,225,39,584,tätort,57.4133222,12.9735956,ljunga
Horda (Värnamo kommun),Horda,Värnamo,353,72,491,tätort,57.0373677,14.2582154,
Horla (Vårgårda kommun),Horla,Vårgårda,229,67,341,tätort,57.9677284,12.7282506,la
Horn (Kinda kommun),Horn,Kinda,529,93,567,tätort,57.900445,15.8426843,
Horndal (Avesta kommun),Horndal,Avesta,1147,273,421,tätort,60.291412,16.4021853,dal
Horred (Mark kommun),Horred,Mark,1271,165,768,tätort,57.3585489,12.4729595,red
Horsta (Timrå kommun),Horsta,Timrå,203,54,375,tätort,62.4643628,17.2347977,sta
Laggarberg (Timrå kommun),Laggarberg,Timrå,203,54,375,tätort,62.4641772,17.2586889,berg
Hortlax (Piteå kommun),Hortlax,Piteå,1110,114,970,tätort,65.2801433,21.403477,lax
Hoting (Strömsund kommun),Hoting,Strömsund,632,115,548,tätort,64.1151771,16.2034954,
Hova (Gullspång kommun),Hova,Gullspång,1320,183,720,tätort,58.8578203,14.2175182,
Hoverberg (Berg kommun),Hoverberg,Berg,208,141,147,tätort,62.8111515,14.4423368,berg
Hovid (Sundsvall kommun),Hovid,Sundsvall,217,54,401,tätort,62.4715054,17.401405471406967,vid
Hovmantorp (Lessebo kommun),Hovmantorp,Lessebo,3156,281,1123,tätort,56.7894229,15.1346655,torp
Hovsta (Örebro kommun),Hovsta,Örebro,2786,157,1772,tätort,59.3465704,15.2273922,sta
Huaröd (Kristianstad kommun),Huaröd,Kristianstad,282,83,341,tätort,55.8403682,13.9682705,röd
Hudiksvall (Hudiksvall kommun),Hudiksvall,Hudiksvall,16383,1326,1236,tätort,61.7281607,17.105575,vall
Hult (Eksjö kommun),Hult,Eksjö,440,60,730,tätort,57.6435694,15.1357406,hult
Hultafors (Bollebygd kommun),Hultafors,Bollebygd,333,71,466,tätort,57.6958035,12.7344574,fors
Hultsfred (Hultsfred kommun),Hultsfred,Hultsfred,5802,566,1025,tätort,57.4898352,15.8428142,red
Hulu (Ulricehamn kommun),Hulu,Ulricehamn,239,63,381,tätort,57.699341,13.2999432,
Hulukvarn (Jönköping kommun),Hulukvarn,Jönköping,319,227,140,tätort,57.7794439,14.0950229,kvarn
Ulfstorp (Jönköping kommun),Ulfstorp,Jönköping,319,227,140,tätort,,,torp
Västersjön (Jönköping kommun),Västersjön,Jönköping,319,227,140,tätort,57.7550923,14.0840187,sjön
Hummelsta (Enköping kommun),Hummelsta,Enköping,980,76,1291,tätort,59.6257233,16.9485569,sta
Hunnebostrand (Sotenäs kommun),Hunnebostrand,Sotenäs,1994,352,567,tätort,58.4412391,11.3010823,strand
Hunnestad (Varberg kommun),Hunnestad,Varberg,275,97,283,tätort,57.1003539,12.3636202,stad
Hurva (Eslöv kommun),Hurva,Eslöv,376,64,587,tätort,55.7960077,13.438365,
Husby (Strängnäs kommun),Husby,Strängnäs,267,160,167,tätort,59.425096,16.9503184,by
Tuna (Strängnäs kommun),Tuna,Strängnäs,267,160,167,tätort,59.2760618,17.102618,tuna
Hustahöjden (Västerås kommun),Hustahöjden,Västerås,214,24,897,tätort,,,
Husum (Örnsköldsvik kommun),Husum,Örnsköldsvik,1556,396,393,tätort,63.3290999,19.1640042,um
Hybo (Ljusdal kommun),Hybo,Ljusdal,218,50,438,tätort,61.7972106,16.1938299,bo
Hyllinge (Åstorp kommun),Hyllinge,Åstorp,2410,169,1425,tätort,56.1048737,12.8654784,inge
Hyltebruk (Hylte kommun),Hyltebruk,Hylte,4141,467,887,tätort,56.9999142,13.2403039,bruk
Hysingsvik (Norrtälje kommun),Hysingsvik,Norrtälje,210,183,115,tätort,59.6801976,18.7407374,vik
Hyssna (Mark kommun),Hyssna,Mark,713,167,427,tätort,57.5555525,12.5394718,
Håbo-Tibble (Upplands-Bro kommun),Håbo-Tibble,Upplands-Bro,654,158,414,tätort,59.5870322,17.6619317,
Håga (Uppsala kommun),Håga,Uppsala,310,32,977,tätort,59.838302,17.5761502,
Håksberg (Ludvika kommun),Håksberg,Ludvika,444,67,664,tätort,60.185035,15.2041869,berg
Hållsta (Gnesta kommun),Hållsta,Gnesta,205,63,327,tätort,59.0299388,17.2796887,sta
Hållsta (Eskilstuna kommun),Hållsta,Eskilstuna,877,102,864,tätort,59.2959759,16.4531665,sta
Hånger (Värnamo kommun),Hånger,Värnamo,319,72,444,tätort,57.0754975,13.974745,ånger
Häggeby (Håbo kommun),Häggeby,Håbo,248,67,369,tätort,59.6569644,17.5494146,by
Vreta (Håbo kommun),Vreta,Håbo,248,67,369,tätort,59.6522175,17.5376626,ta
Häggenås (Östersund kommun),Häggenås,Östersund,338,107,317,tätort,63.3907793,14.8936902,ås
Häljarp (Landskrona kommun),Häljarp,Landskrona,3461,221,1564,tätort,55.8515457,12.9152096,arp
Hällaryd (Karlshamn kommun),Hällaryd,Karlshamn,632,116,544,tätort,56.2040846,14.9478245,ryd
Hällberga (Eskilstuna kommun),Hällberga,Eskilstuna,607,65,927,tätort,59.3190953,16.5972121,berga
Hällbybrunn (Eskilstuna kommun),Hällbybrunn,Eskilstuna,3324,309,1076,tätort,59.3901451,16.4241774,brunn
Hällbäcken (Luleå kommun),Hällbäcken,Luleå,815,105,774,tätort,65.626866,22.1977994,bäcken
Sinksundet (Luleå kommun),Sinksundet,Luleå,815,105,774,tätort,65.6180917,22.203546,
Hällefors (Hällefors kommun),Hällefors,Hällefors,4506,524,859,tätort,59.7839629,14.5218978,fors
Hälleforsnäs (Flen kommun),Hälleforsnäs,Flen,1675,216,775,tätort,59.1513838,16.5000518,näs
Hällekis (Götene kommun),Hällekis,Götene,655,127,517,tätort,58.6305638,13.4378627,
Hällestad (Finspång kommun),Hällestad,Finspång,318,93,342,tätort,58.7416543,15.5722273,stad
Hällesåker (Mölndal kommun),Hällesåker,Mölndal,694,232,299,tätort,57.5995742,12.1894996,åker
Hällevadsholm (Munkedal kommun),Hällevadsholm,Munkedal,780,101,773,tätort,58.5785545,11.5431532,holm
Hällevik (Sölvesborg kommun),Hällevik,Sölvesborg,1510,343,440,tätort,56.0137816,14.6969686,vik
Hällingsjö (Härryda kommun),Hällingsjö,Härryda,512,96,532,tätort,57.6182864,12.4359632,sjö
Hällnäs (Vindeln kommun),Hällnäs,Vindeln,229,81,283,tätort,64.3076515,19.623205,näs
Hälsö (Öckerö kommun),Hälsö,Öckerö,609,62,983,tätort,57.734884699999995,11.65241535410532,ö
Härad (Strängnäs kommun),Härad,Strängnäs,554,83,664,tätort,59.3612881,16.9015677,härad
Häradsbygden (Leksand kommun),Häradsbygden,Leksand,708,200,354,tätort,60.7022298,15.0471167,bygden
Härnösand (Härnösand kommun),Härnösand,Härnösand,18563,1142,1625,tätort,62.6323084,17.9379914,
Härryda (Härryda kommun),Härryda,Härryda,1170,356,329,tätort,57.6914584,12.3111255,ryda
Härslöv (Landskrona kommun),Härslöv,Landskrona,422,39,1088,tätort,55.9324062,12.8760237,löv
Hässleholm (Hässleholm kommun),Hässleholm,Hässleholm,19576,1323,1480,tätort,56.157986,13.7653328,holm
Hästhagen (Nacka kommun),Hästhagen,Nacka,496,37,1334,tätort,59.2988624,18.1567308,hagen
Hästholmen (Ödeshög kommun),Hästholmen,Ödeshög,322,48,675,tätort,58.2785395,14.638577,holmen
Hästveda (Hässleholm kommun),Hästveda,Hässleholm,1733,292,594,tätort,56.2845087,13.9363917,eda
Hästängen (Norrtälje kommun),Hästängen,Norrtälje,726,243,298,tätort,59.6421766,18.6519566,ängen
Hätte (Tranås kommun),Hätte,Tranås,251,74,337,tätort,58.0364453,15.0234703,
Seglarvik (Tranås kommun),Seglarvik,Tranås,251,74,337,tätort,58.0332988,15.0363054,vik
Sandvik (Tranås kommun),Sandvik,Tranås,251,74,337,tätort,58.0177999,15.0493575,vik
Höganäs (Höganäs kommun),Höganäs,Höganäs,15455,1036,1491,tätort,56.2008565,12.5515849,näs
Högboda (Kil kommun),Högboda,Kil,318,120,265,tätort,59.5568371,13.0538049,boda
Höggeröd (Orust kommun),Höggeröd,Orust,240,189,127,tätort,58.277243,11.7548578,röd
Högsby (Högsby kommun),Högsby,Högsby,1998,262,763,tätort,57.1652915,16.0261862,by
Högsjö (Vingåker kommun),Högsjö,Vingåker,680,98,692,tätort,59.0278247,15.6708811,sjö
Högsäter (Färgelanda kommun),Högsäter,Färgelanda,736,112,657,tätort,58.6511047,12.0554537,säter
Hökerum (Ulricehamn kommun),Hökerum,Ulricehamn,659,86,765,tätort,57.8386638,13.2862219,rum
Hököpinge (Vellinge kommun),Hököpinge,Vellinge,1327,87,1528,tätort,55.4933385,13.0087875,köpinge
Höllviken (Vellinge kommun),Höllviken,Vellinge,15522,1312,1183,tätort,55.4137626,12.9632315,viken
Hölö (Södertälje kommun),Hölö,Södertälje,1515,168,904,tätort,59.025492,17.5355529,ö
Hönö (Öckerö kommun),Hönö,Öckerö,9134,612,1492,tätort,57.6903138,11.652050867386935,ö
Hörby (Hörby kommun),Hörby,Hörby,7642,560,1363,tätort,55.8540136,13.6633304,by
Hörnefors (Umeå kommun),Hörnefors,Umeå,2538,237,1070,tätort,63.6278566,19.9140962,fors
Hörvik (Sölvesborg kommun),Hörvik,Sölvesborg,825,124,666,tätort,56.0404961,14.7651903,vik
Höviksnäs (Tjörn kommun),Höviksnäs,Tjörn,3459,674,513,tätort,58.0332444,11.7483502,näs
Höör (Höör kommun),Höör,Höör,12631,1619,780,tätort,55.9332915,13.5453834,ör
Idkerberget (Borlänge kommun),Idkerberget,Borlänge,255,77,333,tätort,60.3805125,15.2330088,berget
Idre (Älvdalen kommun),Idre,Älvdalen,696,140,496,tätort,61.8584278,12.7168462,
Igelfors (Finspång kommun),Igelfors,Finspång,222,39,575,tätort,58.8455279,15.6969525,fors
Igelstorp (Skövde kommun),Igelstorp,Skövde,662,73,901,tätort,58.3987043,13.9784076,torp
Iggesund (Hudiksvall kommun),Iggesund,Hudiksvall,3438,436,789,tätort,61.6429635,17.0781216,sund
Ilsbo (Nordanstig kommun),Ilsbo,Nordanstig,458,68,669,tätort,61.8586341,17.0509858,bo
Immeln (Östra Göinge kommun),Immeln,Östra Göinge,299,116,258,tätort,56.2060543,14.2489481,
Indal (Sundsvall kommun),Indal,Sundsvall,949,251,378,tätort,62.6095264,17.019983031086177,dal
Ingared (Alingsås kommun),Ingared,Alingsås,2207,330,670,tätort,57.8504205,12.4584768,red
Ingatorp (Eksjö kommun),Ingatorp,Eksjö,482,110,438,tätort,57.6377689,15.4104862,torp
Ingelstad (Växjö kommun),Ingelstad,Växjö,1880,207,906,tätort,56.7408573,14.9290015,stad
Ingelsträde (Höganäs kommun),Ingelsträde,Höganäs,250,44,563,tätort,56.1851358,12.6329732,
Innertavle (Umeå kommun),Innertavle,Umeå,585,72,812,tätort,63.8138079,20.4190652,
Insjön (Leksand kommun),Insjön,Leksand,2198,369,596,tätort,60.6794193,15.0923237,sjön
Inskogen (Oxelösund kommun),Inskogen,Oxelösund,223,21,1083,tätort,58.6878273,17.044937,skogen
Irsta (Västerås kommun),Irsta,Västerås,2744,160,1717,tätort,59.6025564,16.6937073,sta
Johannesudd (Vallentuna kommun),Johannesudd,Vallentuna,293,16,1867,tätort,59.5516179,18.0309718,
Johannishus (Ronneby kommun),Johannishus,Ronneby,756,100,753,tätort,56.2268578,15.4205483,hus
Johansfors (Emmaboda kommun),Johansfors,Emmaboda,428,139,308,tätort,56.6959762,15.539604,fors
Jokkmokk (Jokkmokk kommun),Jokkmokk,Jokkmokk,2798,275,1016,tätort,66.6058539,19.8379317,
Jonsered (Partille kommun),Jonsered,Partille,908,110,822,tätort,57.7469786,12.1712604,red
Jonslund (Essunga kommun),Jonslund,Essunga,317,75,422,tätort,58.1592054,12.836747,lund
Jonstorp (Höganäs kommun),Jonstorp,Höganäs,2063,194,1062,tätort,56.2283011,12.6748623,torp
Jordbro (Haninge kommun),Jordbro,Haninge,11453,488,2349,tätort,59.1423991,18.1317918,bro
Jukkasjärvi (Kiruna kommun),Jukkasjärvi,Kiruna,677,137,495,tätort,67.8503783,20.6053047,järvi
Jung (Vara kommun),Jung,Vara,387,96,404,tätort,58.3296452,13.1112317,
Jungfrusund (Ekerö kommun),Jungfrusund,Ekerö,290,14,2030,tätort,59.2745232,17.8466266,sund
Junosuando (Pajala kommun),Junosuando,Pajala,281,142,198,tätort,67.428291,22.5114178,suando
Junsele (Sollefteå kommun),Junsele,Sollefteå,782,226,346,tätort,63.6970646,16.8828773,sele
Juoksengi (Övertorneå kommun),Juoksengi,Övertorneå,301,151,199,tätort,66.5576403,23.8323445,
Jäderfors (Sandviken kommun),Jäderfors,Sandviken,316,61,517,tätort,60.6627275,16.6978946,fors
Jälla (Uppsala kommun),Jälla,Uppsala,1838,122,1507,tätort,59.9048502,17.7166773,la
Jämjö (Karlskrona kommun),Jämjö,Karlskrona,2703,317,852,tätort,56.1908483,15.8403497,ö
Jämshög (Olofström kommun),Jämshög,Olofström,1621,255,636,tätort,56.2412875,14.5319796,hög
Jämtön (Luleå kommun),Jämtön,Luleå,216,78,277,tätort,65.8537611,22.4982017,ön
Järavallen (Kävlinge kommun),Järavallen,Kävlinge,248,30,836,tätort,55.7927107,12.9504753,vallen
Järbo (Sandviken kommun),Järbo,Sandviken,1750,244,717,tätort,60.7199303,16.5972163,bo
Järlåsa (Uppsala kommun),Järlåsa,Uppsala,539,76,709,tätort,59.8869071,17.2005551,åsa
Järna (Södertälje kommun),Järna,Södertälje,6184,390,1586,tätort,59.0938437,17.5681203,
Järna (Vansbro kommun),Järna,Vansbro,1655,588,281,tätort,60.5480476,14.3679875,
Järnforsen (Hultsfred kommun),Järnforsen,Hultsfred,474,140,339,tätort,57.4084734,15.6210714,forsen
Järpen (Åre kommun),Järpen,Åre,1604,234,687,tätort,63.348376,13.4636687,
Järpås (Lidköping kommun),Järpås,Lidköping,820,106,774,tätort,58.3801109,12.9725436,ås
Järvsö (Ljusdal kommun),Järvsö,Ljusdal,1508,345,437,tätort,61.7158943,16.1693209,ö
Jättendal (Nordanstig kommun),Jättendal,Nordanstig,260,110,236,tätort,61.9781211,17.2433292,dal
Jävre (Piteå kommun),Jävre,Piteå,590,167,354,tätort,65.1543218,21.4986978,
Jönköping (Jönköping kommun),Jönköping,Jönköping,97996,4783,2049,tätort,57.7825634,14.165719,köping
Jönåker (Nyköping kommun),Jönåker,Nyköping,609,85,720,tätort,58.7469271,16.7250956,åker
Jörlanda (Stenungsund kommun),Jörlanda,Stenungsund,1507,343,440,tätort,57.9863933,11.8311444,landa
Jörn (Skellefteå kommun),Jörn,Skellefteå,702,177,396,tätort,65.0576461,20.0412648,
Jössefors (Arvika kommun),Jössefors,Arvika,738,127,582,tätort,59.673429,12.504671,fors
Kagghamra (Botkyrka kommun),Kagghamra,Botkyrka,291,86,338,tätort,59.1054357,17.7706041,
Kalix (Kalix kommun),Kalix,Kalix,8493,895,949,tätort,65.8589171,23.1403303,
Kalkudden (Strängnäs kommun),Kalkudden,Strängnäs,269,181,148,tätort,59.2650522,17.2829328,udden
Kallax (Luleå kommun),Kallax,Luleå,475,170,280,tätort,65.5245736,22.0592544,lax
Kallfors (Södertälje kommun),Kallfors,Södertälje,1404,142,992,tätort,59.11265645,17.548315826808732,fors
Kallinge (Ronneby kommun),Kallinge,Ronneby,4937,523,944,tätort,56.2456106,15.2872377,inge
Kalmar (Kalmar kommun),Kalmar,Kalmar,40434,1998,2024,tätort,56.6628826,16.3662382,
Kalvsund (Öckerö kommun),Kalvsund,Öckerö,208,25,818,tätort,57.7089688,11.680922518666668,sund
Kangos (Pajala kommun),Kangos,Pajala,238,145,164,tätort,67.4845264,22.655664,os
Karby (Vallentuna kommun),Karby,Vallentuna,848,55,1546,tätort,59.5622952,18.221735,arby
Kareby (Kungälv kommun),Kareby,Kungälv,237,56,422,tätort,57.904412,11.9340876,by
Ringby (Kungälv kommun),Ringby,Kungälv,237,56,422,tätort,57.9198186,11.9305876,by
Karesuando (Kiruna kommun),Karesuando,Kiruna,290,74,390,tätort,68.4405054,22.4743151,suando
Karlholmsbruk (Tierp kommun),Karlholmsbruk,Tierp,1235,284,435,tätort,60.5219407,17.6362316,bruk
Karlsborg (Karlsborg kommun),Karlsborg,Karlsborg,3766,505,746,tätort,58.5359075,14.5054884,borg
Karlshamn (Karlshamn kommun),Karlshamn,Karlshamn,20293,1597,1271,tätort,56.1701723,14.8631279,hamn
Karlskoga (Karlskoga kommun),Karlskoga,Karlskoga,27562,2037,1353,tätort,59.3291667,14.5176911,skoga
Karlskrona (Karlskrona kommun),Karlskrona,Karlskrona,37174,2121,1752,tätort,56.1621073,15.5866422,krona
Karlstad (Karlstad kommun),Karlstad,Karlstad,64214,2833,2267,tätort,59.3809146,13.5027631,stad
Karlsvik (Luleå kommun),Karlsvik,Luleå,237,33,714,tätort,65.5972835,22.0791066,vik
Kartlandet (Norrköping kommun),Kartlandet,Norrköping,201,72,278,tätort,58.6430831,16.0900449,landet
Hagsätter (Norrköping kommun),Hagsätter,Norrköping,201,72,278,tätort,58.435298,16.0068021,sätter
Karups sommarby (Sjöbo kommun),Karups sommarby,Sjöbo,407,90,450,tätort,55.591988,13.6376485,arby
Kastlösa (Mörbylånga kommun),Kastlösa,Mörbylånga,210,103,204,tätort,56.4598385,16.4289537,lösa
Katrinedal (Vänersborg kommun),Katrinedal,Vänersborg,412,44,932,tätort,58.3875134,12.2969071,dal
Katrineholm (Katrineholm kommun),Katrineholm,Katrineholm,24303,1181,2058,tätort,58.9960335,16.2067589,holm
Kattarp (Helsingborg kommun),Kattarp,Helsingborg,736,73,1011,tätort,56.19349115,12.755286786447437,arp
Kaxholmen (Jönköping kommun),Kaxholmen,Jönköping,1710,163,1050,tätort,57.8540048,14.3075873,holmen
Kebal (Strömstad kommun),Kebal,Strömstad,395,207,190,tätort,58.9525534,11.1529318,
Kil (Nacka kommun),Kil,Nacka,993,91,1088,tätort,59.334977,18.3233803,kil
Kil (Kil kommun),Kil,Kil,7714,795,970,tätort,59.5020632,13.3175439,kil
Kilafors (Bollnäs kommun),Kilafors,Bollnäs,1207,153,789,tätort,61.228627,16.5671181,fors
Killeberg (Osby kommun),Killeberg,Osby,627,117,537,tätort,56.4758692,14.0969548,berg
Kilsmo (Örebro kommun),Kilsmo,Örebro,227,32,699,tätort,59.0685529,15.5391697,mo
Kimstad (Norrköping kommun),Kimstad,Norrköping,1572,176,893,tätort,58.5489217,15.9689066,stad
Kinna (Mark kommun),Kinna,Mark,15405,1971,781,tätort,57.5080076,12.6970568,
Kinnared (Hylte kommun),Kinnared,Hylte,336,91,371,tätort,57.0269385,13.110207,red
Kinnarp (Falköping kommun),Kinnarp,Falköping,981,148,661,tätort,58.0748874,13.5196762,arp
Kinnarumma (Borås kommun),Kinnarumma,Borås,356,73,487,tätort,57.5931979,12.8744989,
Kiruna (Kiruna kommun),Kiruna,Kiruna,16835,898,1874,tätort,67.8550724,20.2255482,
Kisa (Kinda kommun),Kisa,Kinda,3817,438,871,tätort,57.9875021,15.622841,
Kivik (Simrishamn kommun),Kivik,Simrishamn,881,192,459,tätort,55.6846354,14.2247727,vik
Kivinge (Håbo kommun),Kivinge,Håbo,203,55,367,tätort,59.6433691,17.46007269987821,inge
Kjulaås (Eskilstuna kommun),Kjulaås,Eskilstuna,929,102,909,tätort,59.3876975,16.6775496,ås
Klagstorp (Trelleborg kommun),Klagstorp,Trelleborg,573,106,540,tätort,55.393439,13.3754255,torp
Klapparvik (Söderhamn kommun),Klapparvik,Söderhamn,210,71,295,tätort,61.2974745,17.142582,vik
Källby (Söderhamn kommun),Källby,Söderhamn,210,71,295,tätort,,,by
Klevshult (Vaggeryd kommun),Klevshult,Vaggeryd,307,65,469,tätort,57.3551884,14.1013807,hult
Klingsta (Sundsvall kommun),Klingsta,Sundsvall,567,167,339,tätort,62.3223588,17.2013144,sta
Allsta (Sundsvall kommun),Allsta,Sundsvall,567,167,339,tätort,62.3239614,17.2183088,sta
Klintehamn (Region Gotland kommun),Klintehamn,Region Gotland,1537,291,529,tätort,57.3863942,18.2028447,hamn
Klippan (Klippan kommun),Klippan,Klippan,8819,547,1612,tätort,56.1340267,13.1332245,
Klippans (Klippan kommun),Klippans,Klippan,375,60,620,tätort,56.1197909,13.148501,
Klockestrand (Kramfors kommun),Klockestrand,Kramfors,316,85,373,tätort,62.8766042,17.9077555,strand
Klockrike (Motala kommun),Klockrike,Motala,252,41,613,tätort,58.4965651,15.3383393,ike
Klutmark (Skellefteå kommun),Klutmark,Skellefteå,202,72,281,tätort,64.7279409,20.6472337,mark
Klågerup (Svedala kommun),Klågerup,Svedala,2152,117,1847,tätort,55.5942535,13.2490081,erup
Klädesholmen (Tjörn kommun),Klädesholmen,Tjörn,356,30,1197,tätort,57.9466986,11.5417914,holmen
Kläppa (Kungsbacka kommun),Kläppa,Kungsbacka,734,147,500,tätort,57.3636529,12.1417299,
Klässbol (Arvika kommun),Klässbol,Arvika,314,97,323,tätort,59.5379968,12.7433337,bol
Klövedal (Tjörn kommun),Klövedal,Tjörn,607,272,223,tätort,58.0379725,11.5750784,dal
Klöverträsk (Luleå kommun),Klöverträsk,Luleå,240,64,373,tätort,65.6380133,21.3920092,träsk
Klövsjö (Berg kommun),Klövsjö,Berg,335,337,99,tätort,62.5278287,14.1971946,sjö
Knislinge (Östra Göinge kommun),Knislinge,Östra Göinge,3298,294,1121,tätort,56.1942022,14.0851389,inge
Knivsta (Knivsta kommun),Knivsta,Knivsta,8332,423,1971,tätort,59.7279085,17.7881747,sta
Knutby (Uppsala kommun),Knutby,Uppsala,741,132,563,tätort,59.9096861,18.2660339,by
Knäred (Laholm kommun),Knäred,Laholm,1257,292,430,tätort,56.5202391,13.3166881,red
Kode (Kungälv kommun),Kode,Kungälv,1634,164,996,tätort,57.943903,11.8508131,
Kolbäck (Hallstahammar kommun),Kolbäck,Hallstahammar,2051,209,983,tätort,59.5624814,16.235983,bäck
Kolsva (Köping kommun),Kolsva,Köping,2447,223,1099,tätort,59.5998419,15.8440006,
Konga (Tingsryd kommun),Konga,Tingsryd,494,100,492,tätort,56.4979179,15.1215247,
Kopparberg (Ljusnarsberg kommun),Kopparberg,Ljusnarsberg,3028,512,591,tätort,59.8745061,14.9903848,berg
Kopparmora (Värmdö kommun),Kopparmora,Värmdö,2306,737,313,tätort,59.3358333,18.565,mora
Koppom (Eda kommun),Koppom,Eda,672,228,295,tätort,59.7031557,12.1494597,om
Korpilombolo (Pajala kommun),Korpilombolo,Pajala,521,111,468,tätort,66.8504323,23.0562683,lombolo
Korsberga (Vetlanda kommun),Korsberga,Vetlanda,767,115,665,tätort,57.3059623,15.1258605,berga
Korsberga (Hjo kommun),Korsberga,Hjo,217,54,398,tätort,58.3026625,14.1023383,berga
Korsgården (Falu kommun),Korsgården,Falu,903,176,514,tätort,60.5939887,15.5659635,gården
Korsträsk (Älvsbyn kommun),Korsträsk,Älvsbyn,319,56,568,tätort,65.6681901,20.8673549,träsk
Kortebo (Jönköping kommun),Kortebo,Jönköping,923,112,824,tätort,57.8148759,14.1454197,bo
Koskullskulle (Gällivare kommun),Koskullskulle,Gällivare,1196,134,893,tätort,67.1859642,20.7386656,
Kosta (Lessebo kommun),Kosta,Lessebo,1028,174,592,tätort,56.8475419,15.3940822,sta
Kovikshamn (Kungälv kommun),Kovikshamn,Kungälv,503,210,240,tätort,57.8417154,11.6865374,hamn
Koviksudde (Värmdö kommun),Koviksudde,Värmdö,320,92,347,tätort,,,udde
Skeviksstrand (Värmdö kommun),Skeviksstrand,Värmdö,320,92,347,tätort,59.357943750000004,18.358320923658326,strand
Kovland (Sundsvall kommun),Kovland,Sundsvall,503,58,869,tätort,62.469520599999996,17.15538502129433,land
Kramfors (Kramfors kommun),Kramfors,Kramfors,6843,861,795,tätort,62.9306117,17.7839901,fors
Kristdala (Oskarshamn kommun),Kristdala,Oskarshamn,1002,180,556,tätort,57.4005671,16.1974346,dala
Kristevik (Uddevalla kommun),Kristevik,Uddevalla,405,145,280,tätort,58.3264243,11.6971668,vik
Sundsandvik (Uddevalla kommun),Sundsandvik,Uddevalla,405,145,280,tätort,58.3098853,11.7007971,vik
Kristianstad (Kristianstad kommun),Kristianstad,Kristianstad,41022,2159,1900,tätort,56.0293778,14.1566859,stad
Kristinehamn (Kristinehamn kommun),Kristinehamn,Kristinehamn,18700,1456,1284,tätort,59.3113619,14.11176,hamn
Kristvallabrunn (Nybro kommun),Kristvallabrunn,Nybro,244,62,396,tätort,56.7777665,16.0533267,brunn
Krokek (Norrköping kommun),Krokek,Norrköping,5178,579,895,tätort,58.6749809,16.3657361,
Krokom (Krokom kommun),Krokom,Krokom,1921,161,1190,tätort,63.3258817,14.449431,om
Krägga (Håbo kommun),Krägga,Håbo,612,126,486,tätort,59.6060417,17.4047549,
Kränge (Linköping kommun),Kränge,Linköping,266,52,507,tätort,58.4409327,15.4688025,änge
Kullaberg (Varberg kommun),Kullaberg,Varberg,222,63,351,tätort,57.2388557,12.2673815,berg
Tvååker (Varberg kommun),Tvååker,Varberg,222,63,351,tätort,57.0413621,12.3991052,åker
Kullersta (Eskilstuna kommun),Kullersta,Eskilstuna,427,258,165,tätort,59.4443697,16.5425137,sta
Kulltorp (Gnosjö kommun),Kulltorp,Gnosjö,367,70,522,tätort,57.2626874,13.7890712,torp
Kullö (Vaxholm kommun),Kullö,Vaxholm,1031,46,2254,tätort,59.4133837,18.3051409,ö
Kumla (Kumla kommun),Kumla,Kumla,17089,1128,1515,tätort,59.130171,15.1443464,la
Kummelnäs (Nacka kommun),Kummelnäs,Nacka,4675,611,765,tätort,59.3496091,18.2798912,näs
Kungsbacka (Kungsbacka kommun),Kungsbacka,Kungsbacka,23475,1168,2009,tätort,57.4888563,12.0787529,backa
Kungsberga (Ekerö kommun),Kungsberga,Ekerö,894,253,353,tätort,59.4059677,17.6279524,berga
Kungsgården (Sandviken kommun),Kungsgården,Sandviken,783,168,467,tätort,60.6056779,16.6176335,gården
Kungshamn (Sotenäs kommun),Kungshamn,Sotenäs,3485,363,961,tätort,58.3608171,11.2511421,hamn
Kungshult (Eslöv kommun),Kungshult,Eslöv,387,47,829,tätort,55.8527778,13.4143702,hult
Kungsängen (Upplands-Bro kommun),Kungsängen,Upplands-Bro,12014,475,2531,tätort,59.4786677,17.7511698,ängen
Kungsäter (Varberg kommun),Kungsäter,Varberg,397,98,403,tätort,57.3058172,12.5648801,säter
Kungsör (Kungsör kommun),Kungsör,Kungsör,5942,436,1364,tätort,59.4248622,16.0950394,ör
Kungälv (Kungälv kommun),Kungälv,Kungälv,19410,1097,1770,tätort,57.8707862,11.9788622,
Kurland (Trelleborg kommun),Kurland,Trelleborg,607,40,1535,tätort,55.3769753,13.084278,land
Kurveröd (Uddevalla kommun),Kurveröd,Uddevalla,1351,67,2007,tätort,58.3635977,11.8904819,röd
Kusmark (Skellefteå kommun),Kusmark,Skellefteå,463,128,362,tätort,64.87881,20.79953,mark
Kuttainen (Kiruna kommun),Kuttainen,Kiruna,234,56,415,tätort,68.3816797,22.8260798,
Kvegerö (Nyköping kommun),Kvegerö,Nyköping,229,210,109,tätort,58.9274959,17.369469016286907,ö
Kvibille (Halmstad kommun),Kvibille,Halmstad,964,100,968,tätort,56.7832272,12.8322062,
Kvicksund (Västerås kommun),Kvicksund,Västerås,2163,462,468,tätort,59.4576443,16.3144858,sund
Kvidinge (Åstorp kommun),Kvidinge,Åstorp,1906,184,1036,tätort,56.1353659,13.0449906,inge
Kvillsfors (Vetlanda kommun),Kvillsfors,Vetlanda,497,95,522,tätort,57.4030878,15.4977281,fors
Kvissleby (Sundsvall kommun),Kvissleby,Sundsvall,5119,608,842,tätort,62.29579205,17.37168895431877,by
Kvista (Upplands-Bro kommun),Kvista,Upplands-Bro,367,8,4638,tätort,59.5141793,17.6167114,sta
Kvänum (Vara kommun),Kvänum,Vara,1386,176,786,tätort,58.3014307,13.1865957,um
Kvärlöv (Landskrona kommun),Kvärlöv,Landskrona,256,46,554,tätort,55.8394393,12.9865696,löv
Kyrkeby (Kungälv kommun),Kyrkeby,Kungälv,358,128,280,tätort,57.8163027,11.8342285,by
Nereby (Kungälv kommun),Nereby,Kungälv,358,128,280,tätort,57.8123121,11.8541638,by
Kyrkesund (Tjörn kommun),Kyrkesund,Tjörn,543,556,98,tätort,58.015795,11.5149447,sund
Kyrkheddinge (Staffanstorp kommun),Kyrkheddinge,Staffanstorp,261,51,510,tätort,55.6491407,13.2680066,inge
Kyrkhult (Olofström kommun),Kyrkhult,Olofström,952,166,572,tätort,56.3553711,14.587698,hult
Kyrksten (Storfors kommun),Kyrksten,Storfors,249,32,780,tätort,59.4376662,14.3929463,sten
Kåge (Skellefteå kommun),Kåge,Skellefteå,2293,272,843,tätort,64.8351736,20.9848115,
Kågeröd (Svalöv kommun),Kågeröd,Svalöv,1562,180,870,tätort,55.999056,13.0883139,röd
Kåhög (Partille kommun),Kåhög,Partille,903,54,1658,tätort,57.7504212,12.1515885,hög
Kållekärr (Tjörn kommun),Kållekärr,Tjörn,664,77,862,tätort,58.0260513,11.6601067,kärr
Kånna (Ljungby kommun),Kånna,Ljungby,339,47,715,tätort,56.7818054,13.9039445,
Kårsta (Vallentuna kommun),Kårsta,Vallentuna,511,80,639,tätort,59.6575031,18.2747011,sta
Kälarne (Bräcke kommun),Kälarne,Bräcke,421,137,306,tätort,62.9792215,16.0858247,
Källby (Götene kommun),Källby,Götene,1753,223,786,tätort,58.509551,13.3073862,by
Källhagen (Gävle kommun),Källhagen,Gävle,488,179,272,tätort,60.6987601,17.1949256,hagen
Källö-Knippla (Öckerö kommun),Källö-Knippla,Öckerö,303,34,891,tätort,57.75316775,11.651050566544118,la
Kärda (Värnamo kommun),Kärda,Värnamo,343,45,758,tätort,57.1712951,13.9213523,
Kärna (Kungälv kommun),Kärna,Kungälv,1097,118,931,tätort,57.8442976,11.7907474,
Kärsta (Västerås kommun),Kärsta,Västerås,260,29,890,tätort,59.6791315,16.8378084,sta
Kättilsmåla (Karlskrona kommun),Kättilsmåla,Karlskrona,252,62,407,tätort,56.2691774,15.7364839,måla
Kättilstorp (Falköping kommun),Kättilstorp,Falköping,237,53,448,tätort,58.0423095,13.7129503,torp
Kävlinge (Kävlinge kommun),Kävlinge,Kävlinge,9789,486,2013,tätort,55.7912944,13.1073471,inge
Köinge (Falkenberg kommun),Köinge,Falkenberg,232,49,469,tätort,57.0642098,12.6451743,inge
Köping (Köping kommun),Köping,Köping,18871,1007,1874,tätort,59.5137434,15.9970475,köping
Köpingebro (Ystad kommun),Köpingebro,Ystad,1234,115,1072,tätort,55.4524524,13.9354174,bro
Köpmanholmen (Örnsköldsvik kommun),Köpmanholmen,Örnsköldsvik,1201,250,480,tätort,63.1694675,18.5546217,holmen
Lagan (Ljungby kommun),Lagan,Ljungby,1669,242,689,tätort,56.7898174,13.8987359,
Laggarsvik (Österåker kommun),Laggarsvik,Österåker,307,388,79,tätort,59.4945548,18.522812,vik
Linanäs (Österåker kommun),Linanäs,Österåker,307,388,79,tätort,59.469289,18.5168528,näs
Laholm (Laholm kommun),Laholm,Laholm,6798,543,1253,tätort,56.5132738,13.043458,holm
Lammhult (Växjö kommun),Lammhult,Växjö,1814,190,955,tätort,57.1689031,14.5805595,hult
Landeryd (Hylte kommun),Landeryd,Hylte,405,85,479,tätort,57.077553,13.2660962,ryd
Landfjärden (Nynäshamn kommun),Landfjärden,Nynäshamn,286,129,222,tätort,59.035934,17.9891558,
Landsbro (Vetlanda kommun),Landsbro,Vetlanda,1540,211,729,tätort,57.3696208,14.9013204,bro
Landskrona (Landskrona kommun),Landskrona,Landskrona,33296,1295,2571,tätort,55.8790975,12.8576249,krona
Landvetter (Härryda kommun),Landvetter,Härryda,9122,887,1028,tätort,57.6886943,12.219017,
Lanesund (Uddevalla kommun),Lanesund,Uddevalla,530,95,558,tätort,58.3409926,11.7157204,sund
Överby (Uddevalla kommun),Överby,Uddevalla,530,95,558,tätort,58.3436459,11.7345948,by
Lanna (Värnamo kommun),Lanna,Värnamo,386,101,382,tätort,57.2235168,13.7776472,
Larv (Vara kommun),Larv,Vara,236,82,289,tätort,58.1889685,13.1264415,arv
Latorpsbruk (Örebro kommun),Latorpsbruk,Örebro,740,125,591,tätort,59.2755328,14.9876045,bruk
Laxvik (Halmstad kommun),Laxvik,Halmstad,488,65,746,tätort,56.5976711,12.9306652,vik
Laxå (Laxå kommun),Laxå,Laxå,3119,424,736,tätort,58.9853347,14.618827,å
Lekeryd (Jönköping kommun),Lekeryd,Jönköping,783,78,1003,tätort,57.773366,14.418215,ryd
Leksand (Leksand kommun),Leksand,Leksand,6339,942,673,tätort,60.7329032,14.9968205,
Lenhovda (Uppvidinge kommun),Lenhovda,Uppvidinge,1811,238,760,tätort,56.9977705,15.2849478,
Lerbäckshult (Ängelholm kommun),Lerbäckshult,Ängelholm,611,154,397,tätort,56.3352593,12.9730612,hult
Lerdala (Skövde kommun),Lerdala,Skövde,543,141,385,tätort,58.4770429,13.7090346,dala
Lerum (Lerum kommun),Lerum,Lerum,27959,2495,1121,tätort,57.7701659,12.2695051,rum
Lesjöfors (Filipstad kommun),Lesjöfors,Filipstad,791,176,449,tätort,59.97628,14.1840612,fors
Lessebo (Lessebo kommun),Lessebo,Lessebo,3016,340,888,tätort,56.7504634,15.2714213,bo
Liatorp (Älmhult kommun),Liatorp,Älmhult,573,88,648,tätort,56.6632353,14.2658727,torp
Lidatorp (Nynäshamn kommun),Lidatorp,Nynäshamn,375,41,913,tätort,58.9532853,17.9079379,torp
Klövsta (Nynäshamn kommun),Klövsta,Nynäshamn,375,41,913,tätort,58.9561965,17.9119557,sta
Liden (Sundsvall kommun),Liden,Sundsvall,320,86,372,tätort,62.697547,16.801983638718376,liden
Lidhult (Ljungby kommun),Lidhult,Ljungby,702,132,534,tätort,56.8275785,13.4405395,hult
Lidingö (Lidingö kommun),Lidingö,Lidingö,43925,1680,2615,tätort,59.3643845,18.133142,ö
Lidköping (Lidköping kommun),Lidköping,Lidköping,23429,1286,1821,tätort,58.5037196,13.1576427,köping
Lilla Edet (Lilla Edet kommun),Lilla Edet,Lilla Edet,3914,311,1259,tätort,58.1350719,12.128477,
Lilla Harrie (Kävlinge kommun),Lilla Harrie,Kävlinge,373,48,782,tätort,55.792753,13.2027511,ie
Lilla Stenby (Ekerö kommun),Lilla Stenby,Ekerö,269,84,319,tätort,59.3847641,17.5246397,by
Lilla Tjärby (Laholm kommun),Lilla Tjärby,Laholm,941,95,989,tätort,56.5272498,13.0565911,by
Lillhaga (Ljusdal kommun),Lillhaga,Ljusdal,403,75,540,tätort,61.8327702,16.0579985,haga
Lillhärdal (Härjedalen kommun),Lillhärdal,Härjedalen,380,228,167,tätort,61.8510454,14.0683308,dal
Lillkyrka (Enköping kommun),Lillkyrka,Enköping,304,43,713,tätort,59.5594257,17.2458217,kyrka
Lillpite (Piteå kommun),Lillpite,Piteå,393,133,295,tätort,65.3739968,21.1513549,
Lima (Malung-Sälen kommun),Lima,Malung-Sälen,212,72,296,tätort,60.9338251,13.360372,
Limedsforsen (Malung-Sälen kommun),Limedsforsen,Malung-Sälen,380,258,147,tätort,60.889845,13.3957344,forsen
Limmared (Tranemo kommun),Limmared,Tranemo,1507,146,1032,tätort,57.5373883,13.3565985,red
Linderöd (Kristianstad kommun),Linderöd,Kristianstad,483,107,452,tätort,55.9330726,13.8237564,röd
Lindesberg (Lindesberg kommun),Lindesberg,Lindesberg,9732,820,1186,tätort,59.5930569,15.2264966,berg
Lindholmen (Vallentuna kommun),Lindholmen,Vallentuna,1214,128,946,tätort,59.5844164,18.105179,holmen
Lindsdal (Kalmar kommun),Lindsdal,Kalmar,5946,406,1463,tätort,56.7339269,16.2974333,dal
Lindö (Norrköping kommun),Lindö,Norrköping,5214,314,1659,tätort,58.5426947,16.347093,ö
Lingbo (Ockelbo kommun),Lingbo,Ockelbo,433,268,162,tätort,61.0488035,16.6941699,bo
Linghed (Falu kommun),Linghed,Falu,584,189,309,tätort,60.78361,15.8604354,hed
Linghem (Linköping kommun),Linghem,Linköping,3021,192,1571,tätort,58.4290823,15.7871809,hem
Linköping (Linköping kommun),Linköping,Linköping,113042,3841,2943,tätort,58.4098135,15.6245252,köping
Linneryd (Tingsryd kommun),Linneryd,Tingsryd,463,127,365,tätort,56.6608453,15.1245726,ryd
Listerby (Ronneby kommun),Listerby,Ronneby,1009,213,474,tätort,56.1964035,15.4022684,by
Lit (Östersund kommun),Lit,Östersund,1125,130,864,tätort,63.3166572,14.8499459,
Ljung (Herrljunga kommun),Ljung,Herrljunga,1224,180,681,tätort,57.9866447,13.0579724,
Annelund (Herrljunga kommun),Annelund,Herrljunga,1224,180,681,tätort,57.9900048,13.0894806,lund
Ljunga (Norrköping kommun),Ljunga,Norrköping,747,95,784,tätort,58.577125,16.3076375,ljunga
Ljungaviken (Sölvesborg kommun),Ljungaviken,Sölvesborg,303,17,1814,tätort,56.049526,14.6066497,viken
Ljungby (Ljungby kommun),Ljungby,Ljungby,16181,1238,1308,tätort,56.8325886,13.9359916,by
Ljungbyhed (Klippan kommun),Ljungbyhed,Klippan,2162,357,605,tätort,56.0744425,13.2335627,hed
Ljungbyholm (Kalmar kommun),Ljungbyholm,Kalmar,1768,210,840,tätort,56.6339754,16.1683753,holm
Ljungsarp (Tranemo kommun),Ljungsarp,Tranemo,213,47,451,tätort,57.5651043,13.5833308,arp
Ljungsbro (Linköping kommun),Ljungsbro,Linköping,6686,450,1485,tätort,58.5081326,15.5026182,bro
Ljungskile (Uddevalla kommun),Ljungskile,Uddevalla,3905,401,974,tätort,58.2246504,11.9198287,kile
Ljusdal (Ljusdal kommun),Ljusdal,Ljusdal,7309,729,1002,tätort,61.8293755,16.0953598,dal
Ljusfallshammar (Finspång kommun),Ljusfallshammar,Finspång,329,72,457,tätort,58.7881097,15.4937053,hammar
Ljusne (Söderhamn kommun),Ljusne,Söderhamn,2000,326,614,tätort,61.2136308,17.1281545,
Loftahammar (Västervik kommun),Loftahammar,Västervik,427,134,318,tätort,57.9043481,16.6931184,hammar
Lomma (Lomma kommun),Lomma,Lomma,13616,593,2297,tätort,55.6745348,13.0708928,
Los (Ljusdal kommun),Los,Ljusdal,340,158,216,tätort,61.7365134,15.1692093,os
Lotorp (Finspång kommun),Lotorp,Finspång,672,98,689,tätort,58.7341005,15.8276847,torp
Lottefors (Bollnäs kommun),Lottefors,Bollnäs,360,98,369,tätort,61.4193194,16.4074731,fors
Lucksta (Sundsvall kommun),Lucksta,Sundsvall,617,156,396,tätort,62.30151575,17.051930680406226,sta
Luddingsbo (Söderköping kommun),Luddingsbo,Söderköping,225,59,380,tätort,58.507934,16.1375394,bo
Ludvika (Ludvika kommun),Ludvika,Ludvika,15748,1117,1410,tätort,60.1503771,15.1813989,vika
Lugnet (Värmdö kommun),Lugnet,Värmdö,724,292,248,tätort,59.3349264,18.3908072,
Skälsmara (Värmdö kommun),Skälsmara,Värmdö,724,292,248,tätort,59.2486324,18.540451227174415,
Lugnvik (Kramfors kommun),Lugnvik,Kramfors,315,116,273,tätort,62.9295771,17.9142347,vik
Lugnås (Mariestad kommun),Lugnås,Mariestad,614,110,559,tätort,58.6440231,13.6999699,ås
Luleå (Luleå kommun),Luleå,Luleå,48728,2856,1706,tätort,65.5831187,22.1459535,eå
Lund (Lund kommun),Lund,Lund,92069,2652,3472,tätort,55.7029296,13.1929449,lund
Lund (Gävle kommun),Lund,Gävle,463,120,387,tätort,60.6636049,17.0036727,lund
Lundby (Kungälv kommun),Lundby,Kungälv,265,63,424,tätort,57.9267894,11.9011002,by
Lundby (Norrköping kommun),Lundby,Norrköping,215,40,543,tätort,58.5737325,16.585318,by
Malm (Norrköping kommun),Malm,Norrköping,215,40,543,tätort,58.5518832,16.3053586,
Lunde (Kramfors kommun),Lunde,Kramfors,340,129,263,tätort,62.8796457,17.8705325,
Lundsbrunn (Götene kommun),Lundsbrunn,Götene,892,129,692,tätort,58.4715912,13.4452633,brunn
Lunnarp (Tomelilla kommun),Lunnarp,Tomelilla,345,57,608,tätort,55.5438948,14.0407163,arp
Lunne (Östersund kommun),Lunne,Östersund,270,128,212,tätort,63.078844,14.8746588,
Lurudden (Ekerö kommun),Lurudden,Ekerö,222,57,391,tätort,59.2746859,17.7082601,udden
Lustigkulla (Hallstahammar kommun),Lustigkulla,Hallstahammar,458,63,732,tätort,59.6200943,16.2026238,la
Gröndal (Hallstahammar kommun),Gröndal,Hallstahammar,458,63,732,tätort,,,dal
Lycksele (Lycksele kommun),Lycksele,Lycksele,8572,772,1111,tätort,64.5958617,18.6777559,sele
Lycksta (Västerås kommun),Lycksta,Västerås,257,35,730,tätort,59.695182,16.5679652,sta
Lyrestad (Mariestad kommun),Lyrestad,Mariestad,489,70,696,tätort,58.8036306,14.0591279,stad
Lysekil (Lysekil kommun),Lysekil,Lysekil,7882,479,1644,tätort,58.2771735,11.4430987,kil
Lysvik (Sunne kommun),Lysvik,Sunne,329,88,372,tätort,60.0152729,13.132996,vik
Långared (Alingsås kommun),Långared,Alingsås,281,121,231,tätort,58.0453328,12.5206692,red
Långasand (Falkenberg kommun),Långasand,Falkenberg,374,267,140,tätort,56.8320381,12.597506,
Ugglarp (Falkenberg kommun),Ugglarp,Falkenberg,374,267,140,tätort,56.8177838,12.6268065,arp
Långasjö (Emmaboda kommun),Långasjö,Emmaboda,346,82,423,tätort,56.5808151,15.4455893,sjö
Långsele (Sollefteå kommun),Långsele,Sollefteå,1649,244,676,tätort,63.1784986,17.0671027,sele
Långshyttan (Hedemora kommun),Långshyttan,Hedemora,1461,278,526,tätort,60.4517732,16.0323485,tan
Långvik (Värmdö kommun),Långvik,Värmdö,1227,301,408,tätort,59.2418236,18.5108042,vik
Långviksmon (Örnsköldsvik kommun),Långviksmon,Örnsköldsvik,213,58,369,tätort,63.6314771,18.6984028,
Långås (Falkenberg kommun),Långås,Falkenberg,644,75,853,tätort,56.9763958,12.441363,ås
Läby (Uppsala kommun),Läby,Uppsala,230,35,650,tätort,60.0884261,17.5553792,by
Läckeby (Kalmar kommun),Läckeby,Kalmar,948,124,765,tätort,56.7829083,16.294941,by
Länghem (Tranemo kommun),Länghem,Tranemo,1119,143,784,tätort,57.6011776,13.2428893,hem
Länna (Uppsala kommun),Länna,Uppsala,691,104,665,tätort,59.8788544,17.9660699,
Läppe (Vingåker kommun),Läppe,Vingåker,250,139,179,tätort,59.1295614,15.7999666,
Lärbro (Region Gotland kommun),Lärbro,Region Gotland,424,76,558,tätort,57.7851621,18.7906376,bro
Löberöd (Eslöv kommun),Löberöd,Eslöv,1235,140,885,tätort,55.7756778,13.5149085,röd
Löddeköpinge (Kävlinge kommun),Löddeköpinge,Kävlinge,6722,409,1645,tätort,55.7632132,13.0003944,köpinge
Löderup (Ystad kommun),Löderup,Ystad,644,86,745,tätort,55.438801,14.1137064,erup
Lödöse (Lilla Edet kommun),Lödöse,Lilla Edet,1840,189,973,tätort,58.033758,12.1545711,öse
Lögdeå (Nordmaling kommun),Lögdeå,Nordmaling,545,180,302,tätort,63.5492584,19.3905145,eå
Lönsboda (Osby kommun),Lönsboda,Osby,2010,267,753,tätort,56.3985844,14.3213269,boda
Lörby (Sölvesborg kommun),Lörby,Sölvesborg,273,88,312,tätort,56.0712595,14.6964984,by
Löttorp (Borgholm kommun),Löttorp,Borgholm,584,433,135,tätort,57.1661167,16.9964945,torp
Lövestad (Sjöbo kommun),Lövestad,Sjöbo,665,107,620,tätort,55.6522808,13.8919613,stad
Lövstalöt (Uppsala kommun),Lövstalöt,Uppsala,1453,94,1543,tätort,59.9587161,17.5775461,löt
Lövånger (Skellefteå kommun),Lövånger,Skellefteå,808,139,580,tätort,64.3687534,21.3135172,ånger
Löwenströmska lasarettet (Upplands Väsby kommun),Löwenströmska lasarettet,Upplands Väsby,618,68,909,tätort,59.5417991,17.9164152,
Madängsholm (Tidaholm kommun),Madängsholm,Tidaholm,423,65,654,tätort,58.1404091,13.9210672,holm
Magra (Alingsås kommun),Magra,Alingsås,212,62,339,tätort,58.1131511,12.6233507,
Mala (Hässleholm kommun),Mala,Hässleholm,223,81,274,tätort,56.2410042,13.7115318,ala
Malmberget (Gällivare kommun),Malmberget,Gällivare,1570,164,959,tätort,67.1761182,20.6589359,berget
Malmbäck (Nässjö kommun),Malmbäck,Nässjö,1151,188,614,tätort,57.5812266,14.4586279,bäck
Malmen (Västerås kommun),Malmen,Västerås,773,82,944,tätort,59.5479001,16.681298,
Malmköping (Flen kommun),Malmköping,Flen,2246,142,1581,tätort,59.1331385,16.7255121,köping
Malmslätt (Linköping kommun),Malmslätt,Linköping,5017,273,1837,tätort,58.4167357,15.516966,slätt
Malmö (Malmö kommun),Malmö,Malmö,317245,7705,4117,tätort,55.6052931,13.0001566,ö
Malmön (Sotenäs kommun),Malmön,Sotenäs,264,105,252,tätort,58.33926285,11.326271122877216,ön
Malsta (Norrtälje kommun),Malsta,Norrtälje,209,56,374,tätort,59.7719317,18.639896,sta
Malung (Malung-Sälen kommun),Malung,Malung-Sälen,4975,1045,476,tätort,60.6864461,13.7145867,
Malungsfors (Malung-Sälen kommun),Malungsfors,Malung-Sälen,575,276,209,tätort,60.7341695,13.5522349,fors
Malå (Malå kommun),Malå,Malå,2043,251,813,tätort,65.1864842,18.7465354,å
Mantorp (Mjölby kommun),Mantorp,Mjölby,3903,349,1120,tätort,58.3543146,15.2884932,torp
Marbystrand (Norrköping kommun),Marbystrand,Norrköping,274,64,427,tätort,58.6058659,16.2909661,strand
Marbäck (Ulricehamn kommun),Marbäck,Ulricehamn,490,70,699,tätort,57.7391195,13.4196368,bäck
Margretetorp (Ängelholm kommun),Margretetorp,Ängelholm,245,70,350,tätort,56.3358598,12.8923826,torp
Mariannelund (Eksjö kommun),Mariannelund,Eksjö,1626,225,723,tätort,57.6156893,15.580343,lund
Marieby (Östersund kommun),Marieby,Östersund,469,203,231,tätort,63.1166898,14.7230288,by
Mariefred (Strängnäs kommun),Mariefred,Strängnäs,4256,300,1417,tätort,59.2599454,17.2229487,red
Marieholm (Eslöv kommun),Marieholm,Eslöv,1645,142,1160,tätort,55.8641443,13.1515333,holm
Marielund (Uppsala kommun),Marielund,Uppsala,300,129,233,tätort,59.8355435,17.9932114,lund
Marielund (Strängnäs kommun),Marielund,Strängnäs,722,41,1756,tätort,59.2517027,17.1820828,lund
Mariestad (Mariestad kommun),Mariestad,Mariestad,16494,1176,1403,tätort,58.7093225,13.8228754,stad
Markaryd (Markaryd kommun),Markaryd,Markaryd,4971,697,714,tätort,56.4596131,13.5919834,ryd
Marma (Älvkarleby kommun),Marma,Älvkarleby,305,51,599,tätort,60.4885566,17.4238866,
Marmaskogen (Söderhamn kommun),Marmaskogen,Söderhamn,1235,192,643,tätort,61.2789535,16.8964023,skogen
Marmaverken (Söderhamn kommun),Marmaverken,Söderhamn,324,75,434,tätort,61.2709509,16.8759746,
Marmorbyn (Vingåker kommun),Marmorbyn,Vingåker,372,55,678,tätort,59.0452398,16.0696967,byn
Marstrand (Kungälv kommun),Marstrand,Kungälv,375,33,1134,tätort,57.8867618,11.5887974,strand
Matfors (Sundsvall kommun),Matfors,Sundsvall,3386,471,719,tätort,62.3467693,17.0199791,fors
Medle (Skellefteå kommun),Medle,Skellefteå,544,157,346,tätort,64.7452305,20.756741,
Medåker (Arboga kommun),Medåker,Arboga,203,51,397,tätort,59.4515164,15.7547195,åker
Mehedeby (Tierp kommun),Mehedeby,Tierp,433,64,674,tätort,60.4459104,17.4039738,by
Mellansel (Örnsköldsvik kommun),Mellansel,Örnsköldsvik,782,191,409,tätort,63.4247722,18.3088234,sel
Mellbystrand (Laholm kommun),Mellbystrand,Laholm,3964,847,468,tätort,56.5045979,12.9483913,strand
Mellerud (Mellerud kommun),Mellerud,Mellerud,3936,321,1226,tätort,58.6990356,12.4543462,rud
Mellösa (Flen kommun),Mellösa,Flen,552,100,551,tätort,59.1007331,16.5618499,lösa
Merlänna (Strängnäs kommun),Merlänna,Strängnäs,395,52,753,tätort,59.2807963,16.980532,
Mjällby (Sölvesborg kommun),Mjällby,Sölvesborg,1346,227,594,tätort,56.0472695,14.6780706,by
Mjällom (Kramfors kommun),Mjällom,Kramfors,205,109,188,tätort,62.9866904,18.4304287,om
Mjöbäck (Svenljunga kommun),Mjöbäck,Svenljunga,304,77,394,tätort,57.314698,12.8756158,bäck
Mjöhult (Höganäs kommun),Mjöhult,Höganäs,327,43,755,tätort,56.1763686,12.6838371,hult
Mjölby (Mjölby kommun),Mjölby,Mjölby,13596,885,1536,tätort,58.3254361,15.131448,by
Mjönäs (Hagfors kommun),Mjönäs,Hagfors,249,121,205,tätort,59.8794529,13.55936,näs
Mockfjärd (Gagnef kommun),Mockfjärd,Gagnef,2011,388,519,tätort,60.5028991,14.9599557,
Mogata (Söderköping kommun),Mogata,Söderköping,299,45,657,tätort,58.4511278,16.4517857,ta
Mohed (Söderhamn kommun),Mohed,Söderhamn,512,185,276,tätort,61.2945405,16.8270511,hed
Moheda (Alvesta kommun),Moheda,Alvesta,1930,255,757,tätort,57.0043559,14.572811,eda
Moholm (Töreboda kommun),Moholm,Töreboda,606,102,592,tätort,58.6070279,14.0383395,holm
Moliden (Örnsköldsvik kommun),Moliden,Örnsköldsvik,290,66,437,tätort,63.3792944,18.4555731,liden
Molkom (Karlstad kommun),Molkom,Karlstad,1860,252,737,tätort,59.602235,13.728668,om
Mollösund (Orust kommun),Mollösund,Orust,212,122,173,tätort,58.0733134,11.4754999,sund
Mora (Mora kommun),Mora,Mora,12801,1719,745,tätort,61.0082091,14.5431333,mora
Morgongåva (Heby kommun),Morgongåva,Heby,1490,149,1001,tätort,59.9337595,16.9626975,
Morup (Falkenberg kommun),Morup,Falkenberg,330,87,378,tätort,56.9816086,12.3990785,rup
Motala (Motala kommun),Motala,Motala,31476,2028,1552,tätort,58.5420395,15.041261,ala
Mullhyttan (Lekeberg kommun),Mullhyttan,Lekeberg,521,141,369,tätort,59.1515687,14.6836583,tan
Mullsjö (Mullsjö kommun),Mullsjö,Mullsjö,5741,540,1063,tätort,57.9168131,13.8804724,sjö
Munga (Västerås kommun),Munga,Västerås,272,100,273,tätort,59.7446617,16.5219601,
Munka-Ljungby (Ängelholm kommun),Munka-Ljungby,Ängelholm,3389,302,1122,tätort,56.2561018,12.9739758,by
Munkedal (Munkedal kommun),Munkedal,Munkedal,4138,565,732,tätort,58.4666055,11.6733554,dal
Munkfors (Munkfors kommun),Munkfors,Munkfors,2957,609,485,tätort,59.83417,13.5481044,fors
Munktorp (Köping kommun),Munktorp,Köping,415,52,805,tätort,59.5325778,16.1342843,torp
Muskö (Haninge kommun),Muskö,Haninge,279,68,413,tätort,58.995830850000004,18.11485777044623,ö
Myckle (Skellefteå kommun),Myckle,Skellefteå,430,109,393,tätort,64.7530007,20.8431372,
Myresjö (Vetlanda kommun),Myresjö,Vetlanda,730,115,634,tätort,57.3846614,14.9664363,sjö
Myrviken (Berg kommun),Myrviken,Berg,306,92,333,tätort,63.0002515,14.3388331,viken
Målerås (Nybro kommun),Målerås,Nybro,206,78,264,tätort,56.91468,15.5694877,ås
Målilla (Hultsfred kommun),Målilla,Hultsfred,1415,323,438,tätort,57.3876016,15.8121695,la
Målsta (Östersund kommun),Målsta,Östersund,337,122,276,tätort,63.1532936,14.5038761,sta
Månkarbo (Tierp kommun),Månkarbo,Tierp,683,102,670,tätort,60.2262119,17.4662869,bo
Måttsund (Luleå kommun),Måttsund,Luleå,644,155,414,tätort,65.5441633,21.9025362,sund
Märsta (Sigtuna kommun),Märsta,Sigtuna,29199,670,4358,tätort,59.6252383,17.8515672,sta
Märsön (Enköping kommun),Märsön,Enköping,220,180,122,tätort,59.5129246,17.037484766820874,ön
Möklinta (Sala kommun),Möklinta,Sala,317,87,366,tätort,60.0860283,16.5447778,ta
Mölle (Höganäs kommun),Mölle,Höganäs,601,86,701,tätort,56.2827467,12.4983228,
Mölltorp (Karlsborg kommun),Mölltorp,Karlsborg,1071,148,724,tätort,58.4943093,14.41381,torp
Mölnbo (Södertälje kommun),Mölnbo,Södertälje,1062,150,709,tätort,59.0486039,17.41531,bo
Mölnlycke (Härryda kommun),Mölnlycke,Härryda,18320,1159,1580,tätort,57.6583613,12.1135762,lycke
Mönsterås (Mönsterås kommun),Mönsterås,Mönsterås,5270,500,1054,tätort,57.0429558,16.4448013,ås
Mörarp (Helsingborg kommun),Mörarp,Helsingborg,1889,127,1482,tätort,56.05146675,12.84905214832817,arp
Mörbylånga (Mörbylånga kommun),Mörbylånga,Mörbylånga,1851,232,796,tätort,56.5249607,16.3802337,långa
Mörlunda (Hultsfred kommun),Mörlunda,Hultsfred,851,233,365,tätort,57.3233025,15.8653134,lunda
Mörrum (Karlshamn kommun),Mörrum,Karlshamn,4026,464,868,tätort,56.1928572,14.7532545,rum
Mörsil (Åre kommun),Mörsil,Åre,827,133,622,tätort,63.3098488,13.6573978,
Naglarby (Säter kommun),Naglarby,Säter,355,81,436,tätort,60.4200339,15.5741332,arby
Nedansjö (Sundsvall kommun),Nedansjö,Sundsvall,283,87,325,tätort,62.3764365,16.848226,sjö
Nedre Gärdsjö (Rättvik kommun),Nedre Gärdsjö,Rättvik,389,192,203,tätort,60.9385784,15.2254729,sjö
Nibble (Södertälje kommun),Nibble,Södertälje,240,48,501,tätort,59.0641917,17.6241006,
Nikkala (Haparanda kommun),Nikkala,Haparanda,414,116,358,tätort,65.8040579,23.9142708,ala
