,ortnamn,latitude,longitude,efterled
0,Abbekås,55.399274899999995,13.6002756,ås
1,Abborrberget,59.385774399999995,17.038210199999998,berget
2,Agunnaryd,56.749573999999996,14.146603,ryd
3,Alberga,59.280621,16.1145003,berga
4,Alby,62.49406139999999,15.476685199999999,by
5,Alfta,61.345718999999995,16.0001042,ta
6,Algutsrum,56.6794265,16.5297957,rum
7,Alingsås,57.92996579999999,12.532967800000002,ås
8,Allerum,56.1099864,12.6918267,rum
9,Almunge,59.8773068,18.0461233,
10,Alsike,59.7566269,17.7635873,sike
11,Alstad,55.45437420000001,13.209501399999999,stad
12,Alster,59.3981176,13.608431699999999,
13,Alsterbro,56.940257200000005,15.913943099999997,bro
14,Alstermo,56.974271400000006,15.652680800000002,mo
15,Alunda,60.0664532,18.0780717,lunda
16,Alvesta,56.899756200000006,14.554649300000001,sta
17,Alvhem,58.0063995,12.1576462,hem
18,Alvik,60.7477267,14.874597,vik
19,Ambjörnarp,57.4213149,13.2945589,arp
20,Ammenäs,58.311395499999996,11.8184075,näs
21,Anderslöv,55.438877100000006,13.3186826,löv
22,Anderstorp,57.282982200000006,13.6368211,torp
23,Aneby,57.838069,14.810078400000002,by
24,Angelstad,56.8280083,13.7622687,stad
25,Angered,57.81327775,12.118507262629436,red
26,Ankarsrum,57.6990558,16.3356297,rum
27,Ankarsvik,62.373596,17.40904,vik
28,Anneberg,57.723388899999996,14.8067122,berg
29,Annelöv,55.8365448,13.019732800000002,löv
30,Antnäs,65.5525529,21.8428729,näs
31,Aplared,57.6501253,13.067945,red
32,Arboga,59.394187,15.8396643,
33,Arbrå,61.4730882,16.374964000000002,rå
34,Ardala,58.362007299999995,13.3380561,dala
35,Arentorp,58.241915000000006,12.873894300000002,torp
36,Arild,56.2738191,12.572109699999999,
37,Arjeplog,66.0517686,17.891679999999997,
38,Arkelstorp,56.17392339999999,14.2897744,torp
39,Arninge,59.46470970000001,18.129501,inge
40,Arnö,58.7297054,17.021413100000004,ö
41,Arrie,55.51552589999999,13.0851347,ie
42,Arvidsjaur,65.5947672,19.1695024,jaur
43,Arvidsvik,57.8901059,11.5959299,vik
44,Arvika,59.65435550000001,12.5916225,vika
45,Aröd,57.9577881,11.7689991,röd
46,Timmervik,57.90178829999999,12.0368307,vik
47,Askeby,58.4066961,15.871683116298325,by
48,Askersby,59.1489606,15.474376000000001,by
49,Askersund,58.87996410000001,14.902806900000002,sund
50,Asmundtorp,55.885595900000006,12.947194900000001,torp
51,Aspeboda,60.560042,15.4918744,boda
52,Asperö,57.64628555,11.80021166698275,ö
53,Aspås,63.3650346,14.484700400000001,ås
54,Avan,65.6804173,21.8046379,
55,Avesta,60.146955299999995,16.1826996,sta
56,Axvall,58.3891661,13.5747695,vall
57,Backa,60.9240204,15.120828099999999,backa
58,Backaryd,56.3472091,15.1544828,ryd
59,Backe,63.8106436,16.405793099999997,
60,Baggetorp,59.0081907,16.0634141,torp
61,Ballingslöv,56.2142746,13.8465783,löv
62,Balsby,56.075362,14.2110301,by
63,Bammarboda,59.5064698,18.468463500000002,boda
64,Bankekind,58.3614502,15.853222910286783,
65,Bankeryd,57.86314229999999,14.1278533,ryd
66,Bara,55.582166799999996,13.180603699999999,
67,Barkarö,59.5557933,16.5041931,ö
68,Barnarp,58.068896499999994,14.541797699999998,arp
69,Odensjö,57.7076329,14.1757875,sjö
70,Barsebäck,55.77166139999999,12.9563659,bäck
71,Barsebäckshamn,55.755836800000004,12.9058848,hamn
72,Baskemölla,55.591541299999996,14.315296100000001,la
73,Bastuträsk,64.789528,20.0438232,träsk
74,Beddingestrand,55.3606336,13.425184699999997,strand
75,Bengtsfors,59.03092879999999,12.222887,fors
76,Bengtsheden,60.7002137,15.8722929,heden
77,Bensbyn,65.639826,22.2396659,byn
78,Berg,58.2167865,16.0221066,berg
79,Berg,58.487531999999995,15.526270000000002,berg
80,Berg,60.4031589,17.0177439,berg
81,Berga,57.217398100000004,16.0346698,berga
82,Bergagård,56.9815167,12.5775003,
83,Bergby,60.929064600000004,17.0410031,by
84,Bergeforsen,62.526318,17.3739827,forsen
85,Berghem,57.4668015,12.589443800000002,hem
86,Bergkvara,56.39075089999999,16.070362,
87,Bergnäset,65.5682242,22.110145899999996,
88,Bergshammar,58.741404,16.912554,hammar
89,Bergshamra,59.639531299999994,18.6564963,
90,Bergsjö,61.983775699999995,17.0583699,sjö
91,Bergströmshusen,55.6766809,13.1733609,
92,Bergsviken,65.307803,21.390501,viken
93,Bergvik,61.2553522,16.8325443,vik
94,Bestorp,58.23347510000001,15.7332185,torp
95,Betsede,59.32978520000001,18.431584,
96,Bettna,58.9072551,16.6387139,
97,Bie,59.0878603,16.2116606,ie
98,Billeberga,55.882914,12.9990874,berga
99,Billinge,55.9625291,13.331781099999999,inge
100,Billingsfors,58.983354299999995,12.2467712,fors
101,Billsta,63.32287710000001,18.5144955,sta
102,Bjurholm,63.932059200000005,19.2189925,holm
103,Bjursås,60.7376045,15.450190599999999,ås
104,Bjuv,56.0842983,12.9167304,
105,Bjärlöv,56.11294470000001,14.087109900000002,löv
106,Bjärnum,56.290441099999995,13.711422099999998,um
107,Bjärred,55.722186300000004,13.0216436,red
108,Bjärsjölagård,55.7231071,13.689776,
109,Bjästa,63.203875100000005,18.5002737,sta
110,Björbo,60.456683,14.727251500000001,bo
111,Björboholm,57.8735794,12.3280504,holm
112,Björke,60.76527779999999,17.189879,
113,Björketorp,57.4262839,12.5236873,torp
114,Björklinge,60.0291369,17.551431,inge
115,Björktorp,59.19551379999999,17.2274474,torp
116,Sanda,59.41979920000001,16.9850272,
117,Björkvik,58.839772499999995,16.5138323,vik
118,Björköby,57.519216799999995,14.905918900000001,by
119,Björlanda,57.76178620000001,11.823391599999999,landa
120,Björna,63.550117900000004,18.5998177,
121,Björnarås,57.574361200000006,12.0507292,ås
122,Björneborg,59.242214000000004,14.2506109,borg
123,Björnlunda,59.06602660000001,17.159785,lunda
124,Björnänge,63.385167700000004,13.1387068,änge
125,Björnö,57.17355799999999,14.6060965,ö
126,Björsäter,58.3356123,16.024210999999998,säter
127,Blackstalund,59.963056200000004,17.3826215,lund
128,Bleket,57.9532505,11.5703756,
129,Blentarp,55.5841581,13.5990807,arp
130,Blidsberg,57.9305831,13.493345199999998,berg
131,Blidö,59.6145386,18.90146437159957,ö
132,Blixbo,60.62921779999999,15.826430599999998,bo
133,Blombacka,59.6067671,13.8004316,backa
134,Blomstermåla,56.9845703,16.3286835,måla
135,Blåsmark,65.26528470000001,21.2927158,mark
136,Bläshammar,57.1532529,12.257319699999998,hammar
137,Trönningenäs,57.13873100000001,12.223881800000001,näs
138,Blötberget,60.126774600000005,15.0587897,berget
139,Bockara,57.26183639999999,16.065139900000002,
140,Boda,61.011321499999994,15.213718099999998,boda
141,Bodafors,57.5052622,14.7033794,fors
142,Boden,65.82750039999999,21.696410500000002,
143,Bohus-Björkö,57.7345679,11.681608450794597,ö
144,Boliden,64.8670486,20.3873335,liden
145,Bollebygd,57.668862399999995,12.5707216,
146,Bollnäs,61.3513005,16.3972013,näs
147,Bollstabruk,62.9971425,17.6757247,bruk
148,Bonäs,61.071555700000005,14.485861300000002,näs
149,Bor,57.1126382,14.1664625,
150,Borensberg,58.56565870000001,15.280218099999999,berg
151,Borggård,58.7302031,15.5589908,
152,Borgholm,56.87992760000001,16.6561377,holm
153,Borgstena,57.88380550000001,13.0131695,
154,Borlänge,60.4856426,15.4234561,änge
155,Borrby,55.4580331,14.1808853,by
156,Borås,57.7210839,12.9407407,ås
157,Bosnäs,57.6676484,12.8505706,näs
158,Botsmark,64.2534035,20.246195899999996,mark
159,Bottnaryd,57.7695139,13.8261337,ryd
160,Bovallstrand,58.4753084,11.3304584,strand
161,Boxholm,58.1981005,15.057120699999999,holm
162,Brantevik,55.51519920000001,14.345963000000001,vik
163,Brastad,58.3820066,11.485181800000001,stad
164,Braås,57.0597928,15.0483561,ås
165,Bredared,57.805782900000004,12.9029859,red
166,Bredaryd,57.174104799999995,13.738937599999998,ryd
167,Bredbyn,63.4488661,18.1118865,byn
168,Bredsand,59.599703500000004,17.067089499999998,
169,Bredviken,65.8286416,23.214159330292286,viken
170,Bro,59.514658,17.6426027,bro
171,Broaryd,57.120231499999996,13.2583524,ryd
172,Broby,56.2549337,14.0777187,by
173,Brokind,58.218153599999994,15.6814626,
174,Bromölla,56.07615799999999,14.468173199999999,la
175,Brotorp,59.19247070000001,13.0290301,torp
176,Brottby,59.560959600000004,18.238716,by
177,Bruksvallarna,62.6403098,12.442215800000001,
178,Brunn,59.281919499999994,18.426495199999998,brunn
179,Brunna,59.503434999999996,17.750732199999998,
180,Brunnsberg,61.29406779999999,13.9198756,berg
181,Bruzaholm,57.6424632,15.271970300000001,holm
182,Brålanda,58.563312100000005,12.3507401,landa
183,Bräcke,62.7521274,15.419870499999998,
184,Bräkne-Hoby,56.228560800000004,15.1169407,by
185,Brändön,65.6953813,22.3365664,ön
186,Brännland,63.866475699999995,20.0768353,land
187,Brännäset,63.6622817,19.9985514,
188,Brännö,57.64378365,11.771863689397328,ö
189,Brösarp,55.72603910000001,14.1049163,arp
190,Bua,57.237037199999996,12.1224817,
191,Buerås,57.423823,11.968179699999999,ås
192,Bullmark,64.0285823,20.4839591,mark
193,Bunkeflostrand,55.54982005,12.929947222138855,strand
194,Bureå,64.61798420000001,21.200492999999998,eå
195,Burgsvik,57.03321170000001,18.2766964,vik
196,Burlövs egnahem,55.635827500000005,13.1019159,hem
197,Burseryd,57.201393200000005,13.281891199999999,ryd
198,Burträsk,64.5190044,20.655786499999998,träsk
199,Buskhyttan,58.6650719,16.942079800000002,tan
200,Butbro,58.7163228,15.8344557,bro
201,Bygdeå,64.0610888,20.853516,eå
202,Bygdsiljum,64.3506694,20.5050613,um
203,Byske,64.9545082,21.2057517,
204,Bålsta,59.56821020000001,17.5293647,sta
205,Båstad,56.426789500000005,12.8607151,stad
206,Båtbyggartorp,59.5216392,17.8482708,torp
207,Båtskärsnäs,65.7809286,23.4221389,näs
208,Bäckaskog,56.0442996,14.3342604,skog
209,Bäckebo,56.8892206,16.0653628,bo
210,Bäckefors,58.806127100000005,12.159969300000002,fors
211,Bäckhammar,59.158939399999994,14.190985999999999,hammar
212,Bälgviken,59.2498277,16.4607413,viken
213,Bälinge,59.948845299999995,17.5429846,inge
214,Bälinge,65.6322135,21.926266100000003,inge
215,Bärby,59.8566853,17.8175047,by
216,Bäsna,60.541131400000005,15.2077918,
217,Bökenäs,56.15858000000001,15.378944699999998,näs
218,Korsanäs,56.14086999999999,15.3407032,näs
219,Kuggeboda,56.140007700000005,15.3667035,boda
220,Böle,65.3861517,21.3225391,böle
221,Bönan,60.7361314,17.3032168,
222,Charlottenberg,59.88396070000001,12.3049207,berg
223,Dala-Floda,60.507692500000005,14.796729999999998,
224,Dalarö,59.13351850000001,18.4052397,ö
225,Dalby,55.6646637,13.3461589,by
226,Dals Långed,58.9259057,12.306382600000001,ed
227,Dals Rostock,58.714085600000004,12.355654099999999,
228,Dalsjöfors,57.7216986,13.1069626,fors
229,Dalstorp,57.6056025,13.511533800000002,torp
230,Dalum,57.900296600000004,13.464924599999998,um
231,Danholn,60.619545200000005,15.7929596,
232,Danmark,59.8322934,17.744172,mark
233,Dannemora,60.2032735,17.8599065,mora
234,Dannike,57.6887714,13.227560999999998,ike
235,Degeberga,55.83715110000001,14.089263500000001,berga
236,Degerfors,59.2361209,14.429730900000001,fors
237,Degerhamn,56.355521100000004,16.411009900000003,hamn
238,Deje,59.6059394,13.4636486,
239,Delary,56.546763600000006,13.956072099999998,
240,Delsbo,61.7999994,16.555430800000003,bo
241,Dingle,58.5276578,11.578636999999999,
242,Dingtuna,59.5724025,16.388665,tuna
243,Diseröd,57.924606700000005,12.028827900000001,röd
244,Diö,56.6393813,14.2211316,ö
245,Djupekås,56.070671499999996,14.7187006,ås
246,Djura,60.612263,15.0054703,
247,Djurås,60.560541,15.130313199999998,ås
248,Djurö,59.311362100000004,18.701575199999997,ö
249,Djurön,58.6292733,16.3471657,ön
250,Docksta,63.0573209,18.327456,sta
251,Domsten,56.11969379999999,12.6073088,sten
252,Donsö,57.601575399999994,11.8034621075405,ö
253,Dorotea,64.2619222,16.408311800000003,
254,Drag,56.7794334,16.4202633,drag
255,Drottningholm,59.324925,17.887332699999998,holm
256,Drottningskär,56.11559690000001,15.5597974,
257,Drängsmark,64.9179693,20.9545824,mark
258,Dunö,56.634091399999996,16.2657942,ö
259,Duvesjön,57.9531858,12.0186317,sjön
260,Dvärsätt,63.3024114,14.473199300000001,sätt
261,Dyvelsten,59.5140428,13.4381483,sten
262,Dösjebro,55.8199778,13.030453300000001,bro
263,Ed,58.91258249999999,11.9340137,ed
264,Eda glasbruk,59.921335600000006,12.2633766,bruk
265,Edane,59.629819999999995,12.8229215,
266,Edeby,59.713235100000006,17.7244047,by
267,Edsbro,59.895128099999994,18.492378600000002,bro
268,Edsbruk,58.019577399999996,16.467459599999998,bruk
269,Edsbyn,61.3774428,15.8181755,byn
270,Edsgatan,59.427017000000006,13.555219199999998,tan
271,Långenäs,59.424228500000005,13.576828599999999,näs
272,Edsvalla,59.436975600000004,13.210344199999998,valla
273,Eggby,58.43396510000001,13.6451126,by
274,Ekeby,59.3624948,17.5986687,by
275,Ekeby,59.254751399999996,17.5200234,by
276,Ekeby,55.999472399999995,12.9651021,by
277,Ekeby,59.164231900000004,15.266540599999999,by
278,Ekeby-Almby,59.2584695,15.336875199999998,by
279,Ekedalen,58.19738620000001,13.8404332,dalen
280,Ekenässjön,57.49183860000001,15.0209543,sjön
281,Ekerö,59.30024455,17.678070867816203,ö
282,Ekerö sommarstad,59.27488220000001,17.732408300000003,stad
283,Eket,56.2475542,13.191359099999998,
284,Ekshärad,60.1696444,13.505857500000001,härad
285,Eksjö,57.6674439,14.9735595,sjö
286,Ekskogen,59.64143570000001,18.231124899999998,skogen
287,Älgeby,59.6159338,18.3880402,by
288,Långsjötorp,59.594312300000006,18.347804800000002,torp
289,Eksund,58.585981999999994,16.091887300000003,sund
290,Ekängen,58.473627799999996,15.6389814,ängen
291,Eldsberga,56.598925300000005,12.9818682,berga
292,Ellös,58.1799703,11.468747500000001,
293,Emmaboda,56.6308333,15.5406619,boda
294,Emmaljunga,56.399826299999994,13.6492329,ljunga
295,Emsfors,57.1458519,16.4607831,fors
296,Emtunga,58.255237199999996,12.9990743,
297,Enbacka,60.4118034,15.6121913,backa
298,Eneryda,56.703808200000005,14.338377300000001,ryda
299,Enhagen-Ekbacken,59.565620700000004,16.5318306,backen
300,Enköping,59.635611499999996,17.077856,köping
301,Enstaberga,58.7514681,16.8545325,berga
302,Enviken,60.8102331,15.754437699999999,viken
303,Enånger,61.5474691,17.002246799999998,ånger
304,Eriksmåla,56.73684029999999,15.473637400000001,måla
305,Eringsboda,56.440125300000005,15.362501500000002,boda
306,Ersmark,63.884470400000005,20.320378299999998,mark
307,Ersmark,64.8483889,20.8981835,mark
308,Ersnäs,65.5290529,21.794633100000002,näs
309,Eskilsby,57.61618570000001,12.2832508,by
310,Snugga,57.6167402,12.2968603,
311,Eskilstuna,59.37173789999999,16.505147400000002,tuna
312,Eslöv,55.8374959,13.303626500000002,löv
313,Evertsberg,61.1351095,13.959032500000001,berg
314,Everöd,55.899331200000006,14.097671400000001,röd
315,Fagerfjäll,57.9857748,11.657080300000002,fjäll
316,Fagerhult,57.9979589,14.1191576,hult
317,Fagerhult,57.1477968,15.663630300000001,hult
318,Fagerhult,58.3169582,12.085907699999998,hult
319,Fagersanna,58.4681806,14.3007209,
320,Fagersta,60.0038627,15.7906054,sta
321,Fagerås,59.51984670000001,13.2226961,ås
322,Falerum,58.143713299999995,16.2063158,rum
323,Falkenberg,56.90489399999999,12.4912926,berg
324,Falköping,58.16965565,13.555486207422321,köping
325,Falla,58.682821999999994,15.746510699999998,la
326,Falun,60.60700679999999,15.6323059,
327,Farhult,56.2150287,12.7125297,hult
328,Fegen,57.1055836,13.0389032,
329,Fellingsbro,59.43439720000001,15.589001399999999,bro
330,Fengersfors,58.9949441,12.4639629,fors
331,Figeholm,57.3767119,16.5522663,holm
332,Filipstad,59.7135483,14.168031400000002,stad
333,Filsbäck,58.4907677,13.2459367,bäck
334,Finja,56.1675684,13.689776,
335,Finkarby,59.2248387,17.3082384,arby
336,Finnerödja,58.92854079999999,14.441130300000001,rödja
337,Finspång,58.707730000000005,15.775864499999999,spång
338,Finsta,59.7369299,18.4920915,sta
339,Fiskebäckskil,58.2456466,11.4566294,kil
340,Fisksätra,59.292196499999996,18.2537882,sätra
341,Fjugesta,59.1734088,14.8709494,sta
342,Fjälkinge,56.0433855,14.275847899999999,inge
343,Fjällastorp,57.6761642,12.5470138,torp
344,Fjällbacka,58.5987546,11.2827802,backa
345,Fjärdhundra,59.7760701,16.917936800000003,
346,Fjärås,57.448515500000006,12.1862316,ås
347,Fjärås station,57.438054799999996,12.1558698,
348,Flen,59.056782299999995,16.5893,
349,Fleninge,56.1083353,12.7915362,inge
350,Flerohopp,56.82275500000001,15.8768402,
351,Flisby,57.784772399999994,14.7964212,by
352,Fliseryd,57.1241074,16.2631299,ryd
353,Floby,58.138443,13.336221300000002,by
354,Flurkmark,63.9824036,20.2366005,mark
355,Flygsfors,56.839414899999994,15.7791654,fors
356,Flyinge,55.7534529,13.3685462,inge
357,Flyksnäs,57.60809329999999,12.377603,näs
358,Flädie,55.7252694,13.0719827,ie
359,Folkärna,60.15284129999999,16.3143882,
360,Fornåsa,58.4791162,15.2279647,åsa
361,Fors,60.2064905,16.313736900000002,fors
362,Forsbacka,60.615339899999995,16.8949803,backa
363,Forserum,57.699732999999995,14.4723521,rum
364,Forshaga,59.5290618,13.482603099999999,haga
365,Forsheda,57.1678551,13.8301364,eda
366,Forssjö,58.955414000000005,16.2926848,sjö
367,Forsvik,58.5804973,14.430632800000001,vik
368,Fotö,57.67008115,11.654583868789242,ö
369,Fredriksberg,60.13983670000001,14.3762452,berg
370,Fredriksdal,57.620242700000006,14.6030921,dal
371,Fredriksfors,61.78785799999999,16.612753299999998,fors
372,Freluga,61.3275255,16.296974900000002,
373,Fridlevstad,56.269795200000004,15.542106200000001,stad
374,Friggesund,61.896424800000005,16.5462606,sund
375,Frillesås,57.3172804,12.176746699999999,ås
376,Frinnaryd,57.93408829999999,14.8208622,ryd
377,Fristad,57.8238811,13.010019699999999,stad
378,Fritsla,57.5518736,12.7865937,la
379,Frostkåge,64.86896139999999,21.007010100000002,
380,Frufällan,57.77724010000001,12.976723800000002,
381,Främmestad,58.23332289999999,12.6662924,stad
382,Frändefors,58.5000567,12.2782435,fors
383,Fränsta,62.4991238,16.170082,sta
384,Frödinge,57.699586399999994,16.0050478,inge
385,Frösakull,56.6695906,12.738781,
386,Frövi,59.466198899999995,15.3650698,vi
387,Funbo,59.8567841,17.8565773,bo
388,Funäsdalen,62.546067,12.542015600000001,dalen
389,Furuby,56.853366099999995,15.0317647,by
390,Furudal,61.170799800000005,15.1366774,dal
391,Furulund,55.776234499999994,13.0911987,lund
392,Furusjö,57.9302906,13.960971100000002,sjö
393,Fågelfors,57.2073802,15.8436619,fors
394,Fågelmara,56.2600689,15.9475083,
395,Fågelsta,58.4586281,15.0433733,sta
396,Fågelvikshöjden,59.280596900000006,18.447797899999998,
397,Fåker,62.9919294,14.577169,åker
398,Fårbo,57.3839716,16.484591,bo
399,Fårösund,57.863033200000004,19.0508902,sund
400,Färgelanda,58.56825799999999,11.9964749,landa
401,Färila,61.7981499,15.843765099999999,la
402,Färjestaden,56.6517105,16.4721747,staden
403,Färlöv,56.07212729999999,14.085975199999998,löv
404,Föllinge,63.6722856,14.6159616,inge
405,Förslöv,56.35467779999999,12.8009706,löv
406,Gagnef,60.592245299999995,15.075683300000001,
407,Gamleby,57.8998238,16.408256400000003,by
408,Gammelgården,65.88196479999999,23.0411935,gården
409,Gantofta,55.9816311,12.816393703946199,tofta
410,Garpenberg,60.311671600000004,16.195085,berg
411,Garphyttan,59.3022042,14.949523000000001,tan
412,Geijersholm,60.067733700000005,13.7299453,holm
413,Gemla,56.870036600000006,14.648903699999998,la
414,Genarp,55.5995193,13.399529300000001,arp
415,Genevad,56.569084100000005,13.0328835,vad
416,Gessie villastad,55.4974,12.956839,stad
417,Gesunda,60.887017900000004,14.550466,sunda
418,Getinge,56.81688199999999,12.7314117,inge
419,Getterön,57.120002500000005,12.2123793,ön
420,Gideå,63.4794032,18.976834699999998,eå
421,Gimo,60.167736,18.188617899999997,mo
422,Gislaved,57.30197679999999,13.539223499999999,ved
423,Gissebo,57.838341099999994,14.272611999999999,bo
424,Gistad,58.466903,15.8947255,stad
425,Gladö kvarn,59.194192799999996,17.985491399999997,kvarn
426,Glanshammar,59.3182586,15.4007605,hammar
427,Glemmingebro,55.451133999999996,14.023794699999998,bro
428,Glimåkra,56.30371160000001,14.1338285,åkra
429,Glommen,56.9328202,12.3647214,
430,Glommersträsk,65.2608365,19.635022199999998,träsk
431,Glumslöv,55.94169839999999,12.8104863,löv
432,Glömminge,56.718267700000006,16.5348815,inge
433,Gnarp,62.0800848,17.593142530599458,arp
434,Gnesta,59.0454209,17.308970000000002,sta
435,Gnosjö,57.3569728,13.7350863,sjö
436,Gonäs,60.14855260000001,15.094347199999998,näs
437,Granby,59.6575628,17.632342,by
438,Graversfors,58.6968323,16.150096100000003,fors
439,Grebbestad,58.692007200000006,11.2542334,stad
440,Grebo,58.302142700000005,15.871671599999999,bo
441,Grevie,56.3929454,12.7807516,ie
442,Grillby,59.625462899999995,17.259092300000002,by
443,Grimslöv,56.7388938,14.542548000000002,löv
444,Grimstorp,57.55418929999999,14.7005184,torp
445,Grimsås,57.48484820000001,13.551954199999999,ås
446,Gripenberg,57.9932789,14.8532533,berg
447,Grisslehamn,60.0981769,18.8058527,hamn
448,Gropen,59.1620627,14.8305666,
449,Grums,59.3518935,13.1056834,
450,Grundsund,58.2133642,11.419244099999998,sund
451,Grycksbo,60.689290799999995,15.487599800000002,bo
452,Gryt,58.1875756,16.8033234,
453,Grytgöl,58.801861200000005,15.555081,
454,Grythyttan,59.70562460000001,14.5367071,tan
455,Gråbo,57.838561,12.299197900000001,bo
456,Gräddö,59.764168500000004,19.032137600000002,ö
457,Gräfsnäs,58.081050899999994,12.492747,näs
458,Grängesberg,60.07516460000001,15.006748199999999,berg
459,Gränna,58.0250583,14.4673146,
460,Grännäs,58.194711100000006,16.6060845,näs
461,Gränum,56.22987239999999,14.6065541,um
462,Grästorp,58.332830200000004,12.679212,torp
463,Grödby,59.0517466,17.8712612,by
464,Grönalid,60.503800899999995,14.2341171,lid
465,Grönskan,59.24483975,18.45966322918713,
466,Vedhamn,59.238130700000006,18.46519221012668,hamn
467,Baldersnäs,59.22771345,18.48172414721017,näs
468,Gualöv,56.0481919,14.419841199999999,löv
469,Gudhem,58.226917099999994,13.567102100000001,hem
470,Gullbrandstorp,56.7070571,12.7360424,torp
471,Gullbranna,56.5890625,12.9475984,
472,Gulleråsen,61.0597037,15.1855802,åsen
473,Gullringen,57.800057200000005,15.717278,
474,Gullspång,58.985397,14.0962517,spång
475,Gunnarskog,59.8135289,12.572332199999998,skog
476,Gunnarstorp,56.09899920000001,12.9220395,torp
477,Gunnebo,57.7224214,16.5275032,bo
478,Gunsta,59.854163899999996,17.8336423,sta
479,Gusselby,59.6453751,15.218535399999999,by
480,Gustavsberg,59.3256235,18.388514,berg
481,Gusum,58.2733429,16.5015962,um
482,Gyttorp,59.504923,14.966624599999998,torp
483,Gånghester,57.701552,13.0235957,hester
484,Gårdby,56.60435329999999,16.6425597,by
485,Gårdskär,60.6124555,17.5775118,
486,Gårdstånga,55.7641957,13.3224966,
487,Gåvsta,59.94269010000001,17.8755705,sta
488,Gäddede,64.50278929999999,14.146139300000002,
489,Gällivare,67.135243,20.6604843,vare
490,Gällstad,57.669055900000004,13.4331892,stad
491,Gällö,62.9183798,15.249429300000001,ö
492,Gängletorp,56.1708369,15.739940400000002,torp
493,Gärds Köpinge,55.946387300000005,14.1560242,köpinge
494,Gärsnäs,55.5459169,14.185333600000002,näs
495,Gävle,60.675013199999995,17.146701899999996,
496,Göta,58.1080405,12.149780499999999,ta
497,Göteborg,57.7072326,11.9670171,borg
498,Götene,58.528062600000005,13.4921229,ene
499,Götlunda,59.3541468,15.667716199999997,lunda
500,Habo,57.9092463,14.0743562,bo
501,Hackås,62.923938799999995,14.5186954,ås
502,Haga,59.7308853,17.1554449,haga
503,Hagby,56.5542238,16.180521900000002,by
504,Hagfors,60.03205210000001,13.700239199999999,fors
505,Hagge,60.1245515,15.2812628,
506,Hakkas,66.9164587,21.566148000000002,
507,Halla Heberg,57.4652848,11.988166099999999,berg
508,Hallabro,56.390162600000004,15.1026861,bro
509,Hallen,63.1770957,14.094435,
510,Hallsberg,59.0660302,15.108918099999999,berg
511,Hallstahammar,59.6134488,16.230161300000002,hammar
512,Hallstavik,60.0517603,18.5970171,vik
513,Halltorp,56.499708700000006,16.1030741,torp
514,Halmstad,56.6739826,12.857482699999998,stad
515,Halvarsgårdarna,60.4059609,15.3867427,
516,Hamburgsund,58.5597964,11.2638099,sund
517,Hammar,56.031989100000004,14.204713,hammar
518,Hammar,58.820744700000006,14.9567441,hammar
519,Hammarby,60.54505699999999,16.5739451,arby
520,Hammarstrand,63.108577100000005,16.3558429,strand
521,Hammenhög,55.5032469,14.1521443,hög
522,Hammerdal,63.5824698,15.354173300000001,dal
523,Hampetorp,59.140068500000005,15.6683533,torp
524,Hanaskog,56.1590645,14.093411900000001,skog
525,Haparanda,65.835667,24.1357213,
526,Hara,63.03925110000001,14.462705300000001,hara
527,Harads,66.0885158,20.9441733,
528,Harbo,60.108367799999996,17.2099617,bo
529,Hargshamn,60.1677683,18.4849255,hamn
530,Harkie,59.53189079999999,16.714112,ie
531,Harkskär,60.7676279,17.3214672,
532,Utvalnäs,60.751709899999994,17.346147600000002,näs
533,Harlösa,55.71761120000001,13.5256101,lösa
534,Harmånger,61.9276307,17.217365899999997,ånger
535,Harplinge,56.7443478,12.724915199999998,inge
536,Hartungviken,62.3938378,17.517432100000004,viken
537,Spikarna,62.3635173,17.522765399999997,
538,Hassela,62.1082589,16.711467499999998,la
539,Hasselfors,59.083459600000005,14.654990900000001,fors
540,Hasslarp,56.1373044,12.813448800000002,arp
541,Hasslö,56.109771900000005,15.465959444628618,ö
542,Hasslöv,56.41308670000001,13.006067999999999,löv
543,Havdhem,57.1616007,18.332037600000003,hem
544,Haverdal,56.72835129999999,12.6708717,dal
545,Havsbaden,56.259991299999996,12.8394126,
546,Heberg,56.8800586,12.6232642,berg
547,Heby,59.9416226,16.857584,by
548,Hedared,57.8085914,12.7527785,red
549,Hede,62.4193436,13.5166777,
550,Hedekas,58.6449936,11.7800371,
551,Hedemora,60.2785997,15.9870293,mora
552,Skansbacken,60.447722399999996,14.4802047,backen
553,Hedenäset,66.2355171,23.677934399999998,
554,Hedeskoga,55.4511826,13.797324300000001,skoga
555,Hedesunda,60.39402510000001,17.006446,sunda
556,Hedkärra,59.9666619,15.7701285,
557,Hedlunda,64.5381169,18.720496100000002,lunda
558,Helgö,59.28112325,17.675484469099978,ö
559,Helsingborg,56.04419839999999,12.7040684,borg
560,Hemavan,65.8152777,15.08528,
561,Hemmestorp,55.6287794,13.5527438,torp
562,Hemmingsmark,65.2229514,21.282341100000004,mark
563,Hemse,57.2401493,18.3800194,
564,Henån,58.2333818,11.6807789,
565,Herrljunga,58.07836089999999,13.0257241,ljunga
566,Herrskog,62.9166,18.027686300000003,skog
567,Herräng,60.129473700000005,18.647285999999998,äng
568,Herstadberg,58.628076,16.175319599999998,berg
569,Hestra,57.9567356,15.074068300000002,hestra
570,Hestra,57.44298829999999,13.594470900000001,hestra
571,Hillared,57.6331988,13.161683800000002,red
572,Hillerstorp,57.314476899999995,13.891287099999998,torp
573,Hillsta,60.60723470000001,16.6506468,sta
574,Se,60.602546700000005,16.650243300000003,
575,Himle,57.073175,12.366750099999999,
576,Hindås,57.7028166,12.451188199999999,ås
577,Hishult,56.4282532,13.312204399999999,hult
578,Hissjö,63.939518400000004,20.156303899999997,sjö
579,Hissmofors,63.3274027,14.4810545,fors
580,Hittarp,56.0983313,12.6388067,arp
581,Hjo,58.3012958,14.287924400000001,
582,Hjorted,57.6205904,16.303010099999998,ed
583,Hjortkvarn,58.900560899999995,15.4344844,kvarn
584,Hjortnäs,60.7949183,14.9674658,näs
585,Hjortsberga,56.9142971,14.453907000000001,berga
586,Hjälm,57.4943662,12.167500599999999,
587,Hjälmared,57.8916507,12.550245,red
588,Hjälteby,58.050433700000006,11.7103733,by
589,Hjältevad,57.6291005,15.343187400000001,vad
590,Hjärnarp,56.318162199999996,12.9163844,arp
591,Hjärsås,56.2078662,14.147964199999999,ås
592,Hjärtum,58.1800719,12.1085224,um
593,Hjärup,55.66984870000001,13.139972400000001,rup
594,Hofors,60.545452100000006,16.2855241,fors
595,Hofterup,55.7983323,12.976774,erup
596,Hogstad,58.330768400000004,15.0261941,stad
597,Hogstorp,58.3964735,11.7577872,torp
598,Hok,57.51721070000001,14.2744352,
599,Holm,56.7340431,12.8545367,holm
600,Holmeja,55.554932799999996,13.273686999999999,
601,Holmsjö,56.4202517,15.538951999999998,sjö
602,Holmsund,63.7081736,20.3730033,sund
603,Holsbybrunn,57.4372796,15.1995143,brunn
604,Holsljunga,57.4133222,12.9735956,ljunga
605,Horda,57.037367700000004,14.258215400000001,
606,Horla,57.9677284,12.728250599999999,la
607,Horn,57.900445,15.8426843,
608,Horndal,60.291412,16.4021853,dal
609,Horred,57.358548899999995,12.4729595,red
610,Horsta,62.4643628,17.234797699999998,sta
611,Laggarberg,62.4641772,17.2586889,berg
612,Hortlax,65.28014329999999,21.403477,lax
613,Hoting,64.11517710000001,16.2034954,
614,Hova,58.8578203,14.2175182,
615,Hoverberg,62.8111515,14.442336800000001,berg
616,Hovid,62.4715054,17.401405471406967,vid
617,Hovmantorp,56.78942289999999,15.1346655,torp
618,Hovsta,59.346570400000004,15.227392199999999,sta
619,Huaröd,55.8403682,13.9682705,röd
620,Hudiksvall,61.72816070000001,17.105575,vall
621,Hult,57.643569400000004,15.135740599999998,hult
622,Hultafors,57.695803500000004,12.7344574,fors
623,Hultsfred,57.48983520000001,15.8428142,red
624,Hulu,57.699341000000004,13.2999432,
625,Hulukvarn,57.779443900000004,14.0950229,kvarn
626,Västersjön,57.755092299999994,14.0840187,sjön
627,Hummelsta,59.625723300000004,16.9485569,sta
628,Hunnebostrand,58.441239100000004,11.301082300000001,strand
629,Hunnestad,57.1003539,12.3636202,stad
630,Hurva,55.796007700000004,13.438365,
631,Husby,59.425095999999996,16.950318399999997,by
632,Tuna,59.2760618,17.102618,tuna
633,Husum,63.329099899999996,19.164004199999997,um
634,Hybo,61.7972106,16.1938299,bo
635,Hyllinge,56.104873700000006,12.8654784,inge
636,Hyltebruk,56.9999142,13.240303899999999,bruk
637,Hysingsvik,59.6801976,18.740737399999997,vik
638,Hyssna,57.555552500000005,12.539471800000001,
639,Håbo-Tibble,59.5870322,17.661931699999997,
640,Håga,59.838302,17.576150199999997,
641,Håksberg,60.185035,15.2041869,berg
642,Hållsta,59.02993879999999,17.279688699999998,sta
643,Hållsta,59.295975899999995,16.453166500000002,sta
644,Hånger,57.0754975,13.974745,ånger
645,Häggeby,59.6569644,17.549414600000002,by
646,Vreta,59.652217500000006,17.5376626,ta
647,Häggenås,63.39077929999999,14.8936902,ås
648,Häljarp,55.8515457,12.915209599999999,arp
649,Hällaryd,56.2040846,14.9478245,ryd
650,Hällberga,59.3190953,16.5972121,berga
651,Hällbybrunn,59.3901451,16.4241774,brunn
652,Hällbäcken,65.626866,22.197799399999997,bäcken
653,Sinksundet,65.61809170000001,22.203546,
654,Hällefors,59.7839629,14.5218978,fors
655,Hälleforsnäs,59.1513838,16.5000518,näs
656,Hällekis,58.63056379999999,13.437862699999998,
657,Hällestad,58.74165429999999,15.572227300000002,stad
658,Hällesåker,57.599574200000006,12.1894996,åker
659,Hällevadsholm,58.5785545,11.543153199999999,holm
660,Hällevik,56.0137816,14.696968599999998,vik
661,Hällingsjö,57.618286399999995,12.4359632,sjö
662,Hällnäs,64.3076515,19.623205,näs
663,Hälsö,57.7348847,11.65241535410532,ö
664,Härad,59.3612881,16.9015677,härad
665,Häradsbygden,60.7022298,15.047116699999998,bygden
666,Härnösand,62.63230840000001,17.937991399999998,
667,Härryda,57.6914584,12.311125500000001,ryda
668,Härslöv,55.9324062,12.8760237,löv
669,Hässleholm,56.157986,13.765332800000001,holm
670,Hästhagen,59.2988624,18.156730800000002,hagen
671,Hästholmen,58.2785395,14.638577,holmen
672,Hästveda,56.2845087,13.936391699999998,eda
673,Hästängen,59.642176600000006,18.651956600000002,ängen
674,Hätte,58.0364453,15.023470300000001,
675,Seglarvik,58.033298800000004,15.0363054,vik
676,Sandvik,58.01779989999999,15.049357500000001,vik
677,Höganäs,56.20085649999999,12.5515849,näs
678,Högboda,59.5568371,13.0538049,boda
679,Höggeröd,58.277243000000006,11.754857800000002,röd
680,Högsby,57.1652915,16.026186199999998,by
681,Högsjö,59.0278247,15.670881099999999,sjö
682,Högsäter,58.651104700000005,12.0554537,säter
683,Hökerum,57.83866379999999,13.286221900000001,rum
684,Hököpinge,55.4933385,13.0087875,köpinge
685,Höllviken,55.413762600000005,12.963231500000001,viken
686,Hölö,59.02549200000001,17.5355529,ö
687,Hönö,57.69031379999999,11.652050867386935,ö
688,Hörby,55.85401360000001,13.6633304,by
689,Hörnefors,63.6278566,19.9140962,fors
690,Hörvik,56.0404961,14.765190300000002,vik
691,Höviksnäs,58.0332444,11.748350199999999,näs
692,Höör,55.9332915,13.5453834,ör
693,Idkerberget,60.3805125,15.233008800000002,berget
694,Idre,61.858427799999994,12.716846199999999,
695,Igelfors,58.8455279,15.6969525,fors
696,Igelstorp,58.39870429999999,13.9784076,torp
697,Iggesund,61.6429635,17.078121600000003,sund
698,Ilsbo,61.8586341,17.0509858,bo
699,Immeln,56.2060543,14.2489481,
700,Indal,62.6095264,17.019983031086177,dal
701,Ingared,57.8504205,12.458476800000001,red
702,Ingatorp,57.637768900000005,15.4104862,torp
703,Ingelstad,56.740857299999995,14.929001500000002,stad
704,Ingelsträde,56.1851358,12.632973199999999,
705,Innertavle,63.8138079,20.4190652,
706,Insjön,60.6794193,15.0923237,sjön
707,Inskogen,58.687827299999995,17.044937,skogen
708,Irsta,59.602556400000005,16.6937073,sta
709,Johannesudd,59.551617900000004,18.0309718,
710,Johannishus,56.2268578,15.4205483,hus
711,Johansfors,56.6959762,15.539604,fors
712,Jokkmokk,66.6058539,19.8379317,
713,Jonsered,57.7469786,12.171260400000001,red
714,Jonslund,58.1592054,12.836747,lund
715,Jonstorp,56.2283011,12.674862300000001,torp
716,Jordbro,59.142399100000006,18.131791800000002,bro
717,Jukkasjärvi,67.85037829999999,20.605304699999998,järvi
718,Jung,58.3296452,13.111231699999998,
719,Jungfrusund,59.274523200000004,17.8466266,sund
720,Junosuando,67.428291,22.5114178,suando
721,Junsele,63.697064600000004,16.8828773,sele
722,Juoksengi,66.55764029999999,23.8323445,
723,Jäderfors,60.6627275,16.697894599999998,fors
724,Jälla,59.9048502,17.7166773,la
725,Jämjö,56.1908483,15.8403497,ö
726,Jämshög,56.2412875,14.5319796,hög
727,Jämtön,65.8537611,22.4982017,ön
728,Järavallen,55.79271070000001,12.9504753,vallen
729,Järbo,60.719930299999994,16.5972163,bo
730,Järlåsa,59.8869071,17.2005551,åsa
731,Järna,59.0938437,17.5681203,
732,Järna,60.548047600000004,14.3679875,
733,Järnforsen,57.40847339999999,15.6210714,forsen
734,Järpen,63.348376,13.463668700000001,
735,Järpås,58.38011089999999,12.9725436,ås
736,Järvsö,61.715894299999995,16.1693209,ö
737,Jättendal,61.9781211,17.243329199999998,dal
738,Jävre,65.1543218,21.4986978,
739,Jönköping,57.782563399999994,14.165719000000001,köping
740,Jönåker,58.74692710000001,16.7250956,åker
741,Jörlanda,57.986393299999996,11.8311444,landa
742,Jörn,65.0576461,20.0412648,
743,Jössefors,59.673429000000006,12.504671,fors
744,Kagghamra,59.10543570000001,17.770604100000003,
745,Kalix,65.8589171,23.140330300000002,
746,Kalkudden,59.2650522,17.2829328,udden
747,Kallax,65.5245736,22.0592544,lax
748,Kallfors,59.11265645,17.548315826808732,fors
749,Kallinge,56.245610600000006,15.287237699999999,inge
750,Kalmar,56.6628826,16.366238199999998,
751,Kalvsund,57.708968799999994,11.680922518666668,sund
752,Kangos,67.48452640000001,22.655664,os
753,Karby,59.56229520000001,18.221735,arby
754,Kareby,57.904412,11.9340876,by
755,Ringby,57.9198186,11.930587599999999,by
756,Karesuando,68.4405054,22.474315100000002,suando
757,Karlholmsbruk,60.5219407,17.636231600000002,bruk
758,Karlsborg,58.53590749999999,14.505488399999999,borg
759,Karlshamn,56.1701723,14.8631279,hamn
760,Karlskoga,59.3291667,14.517691099999999,skoga
761,Karlskrona,56.162107299999995,15.5866422,krona
762,Karlstad,59.380914600000004,13.5027631,stad
763,Karlsvik,65.5972835,22.079106600000003,vik
764,Kartlandet,58.6430831,16.0900449,landet
765,Hagsätter,58.435297999999996,16.0068021,sätter
766,Karups sommarby,55.591988,13.6376485,arby
767,Kastlösa,56.459838500000004,16.428953699999997,lösa
768,Katrinedal,58.387513399999996,12.2969071,dal
769,Katrineholm,58.996033499999996,16.2067589,holm
770,Kattarp,56.19349115,12.755286786447435,arp
771,Kaxholmen,57.8540048,14.307587300000002,holmen
772,Kebal,58.9525534,11.152931800000001,
773,Kil,59.334977,18.3233803,kil
774,Kil,59.502063199999995,13.3175439,kil
775,Kilafors,61.228627,16.5671181,fors
776,Killeberg,56.475869200000005,14.0969548,berg
777,Kilsmo,59.0685529,15.539169699999999,mo
778,Kimstad,58.54892170000001,15.968906599999999,stad
779,Kinna,57.5080076,12.697056800000002,
780,Kinnared,57.0269385,13.110207,red
781,Kinnarp,58.074887399999994,13.5196762,arp
782,Kinnarumma,57.59319789999999,12.8744989,
783,Kiruna,67.85507240000001,20.2255482,
784,Kisa,57.98750210000001,15.622841000000001,
785,Kivik,55.68463539999999,14.224772699999999,vik
786,Kivinge,59.6433691,17.46007269987821,inge
787,Kjulaås,59.387697499999994,16.6775496,ås
788,Klagstorp,55.393439,13.3754255,torp
789,Klapparvik,61.2974745,17.142582,vik
790,Klevshult,57.355188399999996,14.1013807,hult
791,Klingsta,62.322358799999996,17.201314399999998,sta
792,Allsta,62.323961399999995,17.218308800000003,sta
793,Klintehamn,57.386394200000005,18.2028447,hamn
794,Klippan,56.1340267,13.133224499999999,
795,Klippans,56.1197909,13.148501000000001,
796,Klockestrand,62.8766042,17.9077555,strand
797,Klockrike,58.496565100000005,15.338339300000001,ike
798,Klutmark,64.7279409,20.6472337,mark
799,Klågerup,55.5942535,13.249008100000001,erup
800,Klädesholmen,57.946698600000005,11.541791400000001,holmen
801,Kläppa,57.3636529,12.1417299,
802,Klässbol,59.5379968,12.743333699999999,bol
803,Klövedal,58.037972499999995,11.5750784,dal
804,Klöverträsk,65.6380133,21.3920092,träsk
805,Klövsjö,62.5278287,14.1971946,sjö
806,Knislinge,56.1942022,14.085138899999999,inge
807,Knivsta,59.7279085,17.7881747,sta
808,Knutby,59.9096861,18.266033899999996,by
809,Knäred,56.520239100000005,13.316688099999999,red
810,Kode,57.943903000000006,11.8508131,
811,Kolbäck,59.5624814,16.235982999999997,bäck
812,Kolsva,59.5998419,15.8440006,
813,Konga,56.4979179,15.1215247,
814,Kopparberg,59.8745061,14.9903848,berg
815,Kopparmora,59.3358333,18.565,mora
816,Koppom,59.7031557,12.1494597,om
817,Korpilombolo,66.8504323,23.056268300000003,lombolo
818,Korsberga,57.305962300000004,15.125860500000002,berga
819,Korsberga,58.3026625,14.1023383,berga
820,Korsgården,60.5939887,15.5659635,gården
821,Korsträsk,65.6681901,20.8673549,träsk
822,Kortebo,57.8148759,14.145419699999998,bo
823,Koskullskulle,67.1859642,20.7386656,
824,Kosta,56.847541899999996,15.394082199999998,sta
825,Kovikshamn,57.8417154,11.6865374,hamn
826,Skeviksstrand,59.35794375,18.35832092365833,strand
827,Kovland,62.4695206,17.15538502129433,land
828,Kramfors,62.93061170000001,17.7839901,fors
829,Kristdala,57.400567099999996,16.197434599999998,dala
830,Kristevik,58.3264243,11.6971668,vik
831,Sundsandvik,58.3098853,11.700797099999999,vik
832,Kristianstad,56.02937779999999,14.1566859,stad
833,Kristinehamn,59.311361899999994,14.11176,hamn
834,Kristvallabrunn,56.777766500000006,16.0533267,brunn
835,Krokek,58.6749809,16.3657361,
836,Krokom,63.325881700000004,14.449431,om
837,Krägga,59.6060417,17.4047549,
838,Kränge,58.440932700000005,15.468802499999999,änge
839,Kullaberg,57.2388557,12.2673815,berg
840,Tvååker,57.04136210000001,12.3991052,åker
841,Kullersta,59.4443697,16.542513699999997,sta
842,Kulltorp,57.2626874,13.7890712,torp
843,Kullö,59.413383700000004,18.305140899999998,ö
844,Kumla,59.130171,15.1443464,la
845,Kummelnäs,59.3496091,18.279891199999998,näs
846,Kungsbacka,57.488856299999995,12.078752900000001,backa
847,Kungsberga,59.405967700000005,17.627952399999998,berga
848,Kungsgården,60.605677899999996,16.6176335,gården
849,Kungshamn,58.3608171,11.251142100000001,hamn
850,Kungshult,55.85277779999999,13.414370199999999,hult
851,Kungsängen,59.4786677,17.7511698,ängen
852,Kungsäter,57.3058172,12.5648801,säter
853,Kungsör,59.4248622,16.0950394,ör
854,Kungälv,57.870786200000005,11.978862199999998,
855,Kurland,55.376975300000005,13.084278,land
856,Kurveröd,58.36359770000001,11.890481900000001,röd
857,Kusmark,64.87881,20.799529999999997,mark
858,Kuttainen,68.3816797,22.826079800000002,
859,Kvegerö,58.927495900000004,17.369469016286907,ö
860,Kvibille,56.7832272,12.8322062,
861,Kvicksund,59.4576443,16.3144858,sund
862,Kvidinge,56.1353659,13.0449906,inge
863,Kvillsfors,57.4030878,15.497728099999998,fors
864,Kvissleby,62.29579205,17.37168895431877,by
865,Kvista,59.514179299999995,17.616711399999996,sta
866,Kvänum,58.301430700000004,13.1865957,um
867,Kvärlöv,55.839439299999995,12.9865696,löv
868,Kyrkeby,57.8163027,11.8342285,by
869,Nereby,57.81231210000001,11.8541638,by
870,Kyrkesund,58.015795,11.5149447,sund
871,Kyrkheddinge,55.649140700000004,13.2680066,inge
872,Kyrkhult,56.3553711,14.587698000000001,hult
873,Kyrksten,59.4376662,14.392946300000002,sten
874,Kåge,64.8351736,20.9848115,
875,Kågeröd,55.999056,13.088313900000001,röd
876,Kåhög,57.750421200000005,12.151588499999999,hög
877,Kållekärr,58.02605129999999,11.6601067,kärr
878,Kånna,56.7818054,13.903944500000001,
879,Kårsta,59.65750309999999,18.2747011,sta
880,Kälarne,62.979221499999994,16.0858247,
881,Källby,58.509551,13.3073862,by
882,Källhagen,60.6987601,17.1949256,hagen
883,Källö-Knippla,57.75316775,11.651050566544118,la
884,Kärda,57.1712951,13.921352300000002,
885,Kärna,57.844297600000004,11.7907474,
886,Kärsta,59.6791315,16.837808399999997,sta
887,Kättilsmåla,56.2691774,15.736483900000001,måla
888,Kättilstorp,58.042309499999995,13.7129503,torp
889,Kävlinge,55.791294400000005,13.107347099999998,inge
890,Köinge,57.0642098,12.6451743,inge
891,Köping,59.5137434,15.9970475,köping
892,Köpingebro,55.4524524,13.9354174,bro
893,Köpmanholmen,63.1694675,18.554621700000002,holmen
894,Lagan,56.7898174,13.8987359,
895,Laggarsvik,59.494554799999996,18.522812,vik
896,Linanäs,59.469289,18.516852800000002,näs
897,Laholm,56.5132738,13.043458,holm
898,Lammhult,57.168903099999994,14.5805595,hult
899,Landeryd,57.077553,13.2660962,ryd
900,Landfjärden,59.035934,17.989155800000002,
901,Landsbro,57.3696208,14.9013204,bro
902,Landskrona,55.8790975,12.857624900000001,krona
903,Landvetter,57.688694299999995,12.219017,
904,Lanesund,58.3409926,11.7157204,sund
905,Överby,58.343645900000006,11.7345948,by
906,Lanna,57.22351679999999,13.777647199999999,
907,Larv,58.18896850000001,13.1264415,arv
908,Latorpsbruk,59.2755328,14.987604500000002,bruk
909,Laxvik,56.5976711,12.930665199999998,vik
910,Laxå,58.98533470000001,14.618827,å
911,Lekeryd,57.773366,14.418215,ryd
912,Leksand,60.7329032,14.996820499999998,
913,Lenhovda,56.997770499999994,15.2849478,
914,Lerbäckshult,56.3352593,12.9730612,hult
915,Lerdala,58.4770429,13.709034599999999,dala
916,Lerum,57.770165899999995,12.2695051,rum
917,Lesjöfors,59.97628,14.184061199999999,fors
918,Lessebo,56.750463399999994,15.271421300000002,bo
919,Liatorp,56.663235300000004,14.2658727,torp
920,Lidatorp,58.9532853,17.9079379,torp
921,Klövsta,58.9561965,17.9119557,sta
922,Liden,62.697547,16.801983638718376,liden
923,Lidhult,56.8275785,13.440539499999998,hult
924,Lidingö,59.3643845,18.133142000000003,ö
925,Lidköping,58.5037196,13.1576427,köping
926,Lilla Edet,58.13507190000001,12.128477,
927,Lilla Harrie,55.792753000000005,13.2027511,ie
928,Lilla Stenby,59.384764100000005,17.524639699999998,by
929,Lilla Tjärby,56.5272498,13.056591099999999,by
930,Lillhaga,61.832770200000006,16.0579985,haga
931,Lillhärdal,61.851045400000004,14.068330800000002,dal
932,Lillkyrka,59.5594257,17.2458217,kyrka
933,Lillpite,65.3739968,21.1513549,
934,Lima,60.93382510000001,13.360372,
935,Limedsforsen,60.889844999999994,13.395734400000002,forsen
936,Limmared,57.53738829999999,13.356598499999999,red
937,Linderöd,55.9330726,13.8237564,röd
938,Lindesberg,59.5930569,15.226496599999999,berg
939,Lindholmen,59.5844164,18.105179,holmen
940,Lindsdal,56.7339269,16.2974333,dal
941,Lindö,58.542694700000006,16.347093,ö
942,Lingbo,61.048803500000005,16.6941699,bo
943,Linghed,60.783609999999996,15.8604354,hed
944,Linghem,58.4290823,15.787180900000001,hem
945,Linköping,58.4098135,15.624525199999997,köping
946,Linneryd,56.6608453,15.124572599999999,ryd
947,Listerby,56.1964035,15.4022684,by
948,Lit,63.3166572,14.8499459,
949,Ljung,57.98664470000001,13.0579724,
950,Annelund,57.990004799999994,13.0894806,lund
951,Ljunga,58.577125,16.3076375,ljunga
952,Ljungaviken,56.049526,14.6066497,viken
953,Ljungby,56.83258860000001,13.9359916,by
954,Ljungbyhed,56.0744425,13.233562699999998,hed
955,Ljungbyholm,56.6339754,16.1683753,holm
956,Ljungsarp,57.565104299999994,13.583330800000002,arp
957,Ljungsbro,58.5081326,15.5026182,bro
958,Ljungskile,58.224650399999994,11.9198287,kile
959,Ljusdal,61.8293755,16.0953598,dal
960,Ljusfallshammar,58.78810970000001,15.493705300000002,hammar
961,Ljusne,61.2136308,17.1281545,
962,Loftahammar,57.9043481,16.6931184,hammar
963,Lomma,55.674534799999996,13.070892800000001,
964,Los,61.73651339999999,15.169209299999999,os
965,Lotorp,58.734100500000004,15.827684699999997,torp
966,Lottefors,61.4193194,16.4074731,fors
967,Lucksta,62.30151575,17.051930680406226,sta
968,Luddingsbo,58.507934,16.1375394,bo
969,Ludvika,60.15037710000001,15.1813989,vika
970,Lugnet,59.33492639999999,18.390807199999998,
971,Skälsmara,59.248632400000005,18.54045122717441,
972,Lugnvik,62.92957710000001,17.914234699999998,vik
973,Lugnås,58.644023100000005,13.6999699,ås
974,Luleå,65.5831187,22.1459535,eå
975,Lund,55.7029296,13.192944899999999,lund
976,Lund,60.6636049,17.0036727,lund
977,Lundby,57.9267894,11.9011002,by
978,Lundby,58.5737325,16.585318,by
979,Malm,58.551883200000006,16.3053586,
980,Lunde,62.879645700000005,17.8705325,
981,Lundsbrunn,58.4715912,13.4452633,brunn
982,Lunnarp,55.5438948,14.0407163,arp
983,Lunne,63.078844,14.874658800000002,
984,Lurudden,59.274685899999994,17.708260100000004,udden
985,Lustigkulla,59.6200943,16.2026238,la
986,Lycksele,64.59586170000001,18.677755899999998,sele
987,Lycksta,59.695181999999996,16.5679652,sta
988,Lyrestad,58.8036306,14.059127900000002,stad
989,Lysekil,58.277173499999996,11.4430987,kil
990,Lysvik,60.01527289999999,13.132995999999999,vik
991,Långared,58.0453328,12.5206692,red
992,Långasand,56.832038100000005,12.597506,
993,Ugglarp,56.8177838,12.6268065,arp
994,Långasjö,56.58081510000001,15.445589300000002,sjö
995,Långsele,63.178498600000005,17.0671027,sele
996,Långshyttan,60.451773200000005,16.032348499999998,tan
997,Långvik,59.241823600000004,18.5108042,vik
998,Långviksmon,63.631477100000005,18.698402800000004,
999,Långås,56.9763958,12.441363,ås
1000,Läby,60.08842610000001,17.555379199999997,by
1001,Läckeby,56.782908299999995,16.294941,by
1002,Länghem,57.60117760000001,13.242889300000002,hem
1003,Länna,59.8788544,17.9660699,
1004,Läppe,59.12956139999999,15.7999666,
1005,Lärbro,57.7851621,18.7906376,bro
1006,Löberöd,55.77567779999999,13.514908499999999,röd
1007,Löddeköpinge,55.763213199999996,13.000394400000001,köpinge
1008,Löderup,55.438801,14.113706400000002,erup
1009,Lödöse,58.033758,12.1545711,öse
1010,Lögdeå,63.54925840000001,19.3905145,eå
1011,Lönsboda,56.398584400000004,14.3213269,boda
1012,Lörby,56.0712595,14.6964984,by
1013,Löttorp,57.1661167,16.9964945,torp
1014,Lövestad,55.65228079999999,13.891961300000002,stad
1015,Lövstalöt,59.9587161,17.5775461,löt
1016,Lövånger,64.3687534,21.3135172,ånger
1017,Löwenströmska lasarettet,59.541799100000006,17.9164152,
1018,Madängsholm,58.1404091,13.9210672,holm
1019,Magra,58.1131511,12.6233507,
1020,Mala,56.2410042,13.7115318,ala
1021,Malmberget,67.1761182,20.6589359,berget
1022,Malmbäck,57.58122660000001,14.458627900000002,bäck
1023,Malmen,59.54790010000001,16.681298,
1024,Malmköping,59.1331385,16.7255121,köping
1025,Malmslätt,58.41673570000001,15.516966,slätt
1026,Malmö,55.6052931,13.000156599999999,ö
1027,Malmön,58.33926285,11.326271122877214,ön
1028,Malsta,59.7719317,18.639896,sta
1029,Malung,60.6864461,13.7145867,
1030,Malungsfors,60.73416949999999,13.552234900000002,fors
1031,Malå,65.18648420000001,18.7465354,å
1032,Mantorp,58.35431460000001,15.2884932,torp
1033,Marbystrand,58.6058659,16.2909661,strand
1034,Marbäck,57.739119499999994,13.419636800000001,bäck
1035,Margretetorp,56.3358598,12.8923826,torp
1036,Mariannelund,57.61568929999999,15.580343,lund
1037,Marieby,63.116689799999996,14.7230288,by
1038,Mariefred,59.2599454,17.2229487,red
1039,Marieholm,55.8641443,13.1515333,holm
1040,Marielund,59.83554350000001,17.993211399999996,lund
1041,Marielund,59.2517027,17.1820828,lund
1042,Mariestad,58.7093225,13.822875400000001,stad
1043,Markaryd,56.459613100000006,13.5919834,ryd
1044,Marma,60.4885566,17.4238866,
1045,Marmaskogen,61.2789535,16.896402300000002,skogen
1046,Marmaverken,61.270950899999995,16.875974600000003,
1047,Marmorbyn,59.04523979999999,16.0696967,byn
1048,Marstrand,57.8867618,11.5887974,strand
1049,Matfors,62.3467693,17.019979100000004,fors
1050,Medle,64.7452305,20.756741,
1051,Medåker,59.451516399999996,15.7547195,åker
1052,Mehedeby,60.445910399999995,17.403973800000003,by
1053,Mellansel,63.42477220000001,18.3088234,sel
1054,Mellbystrand,56.50459789999999,12.9483913,strand
1055,Mellerud,58.6990356,12.4543462,rud
1056,Mellösa,59.1007331,16.561849900000002,lösa
1057,Merlänna,59.2807963,16.980532,
1058,Mjällby,56.04726949999999,14.6780706,by
1059,Mjällom,62.9866904,18.430428699999997,om
1060,Mjöbäck,57.314698,12.8756158,bäck
1061,Mjöhult,56.176368599999996,12.6838371,hult
1062,Mjölby,58.325436100000005,15.131448,by
1063,Mjönäs,59.8794529,13.55936,näs
1064,Mockfjärd,60.5028991,14.9599557,
1065,Mogata,58.451127799999995,16.4517857,ta
1066,Mohed,61.294540500000004,16.827051100000002,hed
1067,Moheda,57.0043559,14.572810999999998,eda
1068,Moholm,58.6070279,14.0383395,holm
1069,Moliden,63.3792944,18.455573100000002,liden
1070,Molkom,59.602235,13.728667999999999,om
1071,Mollösund,58.073313399999996,11.4754999,sund
1072,Mora,61.0082091,14.543133300000001,mora
1073,Morgongåva,59.9337595,16.9626975,
1074,Morup,56.9816086,12.3990785,rup
1075,Motala,58.5420395,15.041260999999999,ala
1076,Mullhyttan,59.151568700000006,14.683658300000001,tan
1077,Mullsjö,57.916813100000006,13.880472400000002,sjö
1078,Munga,59.74466170000001,16.5219601,
1079,Munka-Ljungby,56.25610179999999,12.9739758,by
1080,Munkedal,58.46660550000001,11.6733554,dal
1081,Munkfors,59.83416999999999,13.5481044,fors
1082,Munktorp,59.53257779999999,16.1342843,torp
1083,Muskö,58.99583085,18.114857770446232,ö
1084,Myckle,64.7530007,20.8431372,
1085,Myresjö,57.38466139999999,14.966436300000002,sjö
1086,Myrviken,63.000251500000005,14.3388331,viken
1087,Målerås,56.914680000000004,15.569487699999998,ås
1088,Målilla,57.3876016,15.812169500000001,la
1089,Målsta,63.1532936,14.5038761,sta
1090,Månkarbo,60.226211899999996,17.466286899999997,bo
1091,Måttsund,65.5441633,21.9025362,sund
1092,Märsta,59.62523829999999,17.851567199999998,sta
1093,Märsön,59.512924600000005,17.037484766820874,ön
1094,Möklinta,60.086028299999995,16.544777800000002,ta
1095,Mölle,56.282746700000004,12.4983228,
1096,Mölltorp,58.4943093,14.41381,torp
1097,Mölnbo,59.048603899999996,17.41531,bo
1098,Mölnlycke,57.6583613,12.113576199999999,lycke
1099,Mönsterås,57.042955799999994,16.4448013,ås
1100,Mörarp,56.05146675,12.849052148328171,arp
1101,Mörbylånga,56.52496070000001,16.3802337,långa
1102,Mörlunda,57.323302500000004,15.8653134,lunda
1103,Mörrum,56.192857200000006,14.7532545,rum
1104,Mörsil,63.309848800000005,13.6573978,
1105,Naglarby,60.42003390000001,15.5741332,arby
1106,Nedansjö,62.3764365,16.848226,sjö
1107,Nedre Gärdsjö,60.9385784,15.2254729,sjö
1108,Nibble,59.0641917,17.624100600000002,
1109,Nikkala,65.8040579,23.9142708,ala
1110,Nissafors,57.407874,13.6371419,fors
1111,Nitta,57.827588799999994,13.1937728,ta
1112,Nittorp,57.5796828,13.4922388,torp
1113,Njurundabommen,62.26278055,17.38275200596364,
1114,Njutånger,61.613485700000005,17.052906699999998,ånger
1115,Nolsjö,59.5328301,18.61562,sjö
1116,Nolvik,57.7772785,11.831599699999998,vik
1117,Nora,59.5187493,15.038797199999998,nora
1118,Norberg,60.067823,15.9210594,berg
1119,Nordanå,55.6234556,13.1228038,å
1120,Nordanö,60.1465195,16.2317519,ö
1121,Nordingrå,62.9299527,18.2901941,rå
1122,Nordkroken,58.382684999999995,12.41426,
1123,Nordmaling,63.49211235,19.53571880547134,
1124,Nordvära,57.2754934,12.1812629,
1125,Källstorp,57.2712475,12.1933651,torp
1126,Norje,56.122104,14.6687451,
1127,Norr Amsberg,60.5304723,15.356155800000002,berg
1128,Norra Bro,59.22658489999999,15.250518300000001,bro
1129,Norra Ingaröstrand,59.2800517,18.49440252724441,strand
1130,Norra Lagnö,59.3542595,18.4083463,ö
1131,Norra Muskö,58.99583085,18.114857770446232,ö
1132,Norra Riksten,59.1697282,17.9204379,sten
1133,Norra Rörum,56.017655500000004,13.5075043,rum
1134,Norra Vindö,59.34617845,18.69899979554445,ö
1135,Norra Visby,57.6646094,18.332447,by
1136,Norraby,58.0550044,15.006797199999998,by
1137,Norrbo,60.272907700000005,14.9495607,bo
1138,Västansjö,60.1591716,14.390520800000001,sjö
1139,Norrfjärden,65.4196199,21.5006462,
1140,Norr-Hede,62.4247458,13.534383600000002,
1141,Norrhult-Klavreström,57.12755179999999,15.162189699999999,ström
1142,Norrköping,58.59091239999999,16.1903511,köping
1143,Norrmjöle,63.6675284,20.123630300000002,
1144,Norrsundet,60.929974,17.140667800000003,
1145,Norrtälje,59.759173499999996,18.703747600000003,
1146,Norsholm,58.5062936,15.974581,holm
1147,Norsjö,64.9132139,19.480073100000002,sjö
1148,Nossebro,58.1883968,12.719209800000002,bro
1149,Nusnäs,60.9625017,14.6461801,näs
1150,Nya Långenäs,57.6561382,12.165207,näs
1151,Nyborg,65.7896418,23.186449,borg
1152,Nybro,56.745225899999994,15.906154199999998,bro
1153,Nybrostrand,55.433007999999994,13.9502983,strand
1154,Nye,57.3436152,15.274067800000001,
1155,Nyehusen,55.8540108,14.225262400000002,
1156,Nygård,58.0569963,12.2158963,
1157,Nygårds hagar,59.217862100000005,17.2811282,
1158,Nyhagen,59.50041120000001,18.372591800000002,hagen
1159,Översättra,59.492852600000006,18.3829318,sättra
1160,Nyhammar,60.2924427,14.9696544,hammar
1161,Nykil,58.22165015,15.500700622883794,kil
1162,Nykroppa,59.6225277,14.3045532,
1163,Nykvarn,59.177239799999995,17.431243,kvarn
1164,Nykyrka,58.6204494,14.9731177,kyrka
1165,Nyköping,58.754540899999995,17.012065600000003,köping
1166,Nyland,63.008509499999995,17.7570693,land
1167,Nymölla,56.03928810000001,14.464035399999998,la
1168,Nynäshamn,58.90564570000001,17.947098699999998,hamn
1169,Nysättra,59.810277899999996,18.8936697,sättra
1170,Nälden,63.348140599999994,14.2541675,
1171,Näs,59.598093799999994,16.2196017,näs
1172,Näsbyn,61.8147049,16.579720499999997,byn
1173,Nässjö,57.6530377,14.698155400000001,sjö
1174,Näsum,56.172615799999996,14.4988321,um
1175,Näsviken,61.75755600000001,16.8669534,viken
1176,Näsviken,63.851591299999995,15.535497400000002,viken
1177,Näsåker,63.4429444,16.897486100000002,åker
1178,Nättraby,56.202412,15.533996900000002,by
1179,Nävekvarn,58.63006020000001,16.7966826,kvarn
1180,Nävragöl,56.37517220000001,15.565153,
1181,Nöbbele,56.7692316,14.8713587,ele
1182,Nödinge-Nol,57.90687710000001,12.060160699999999,
1183,Obbola,63.702584400000006,20.3130934,la
1184,Ockelbo,60.889389,16.7173614,bo
1185,Odensbacken,59.162539100000004,15.525526800000002,backen
1186,Odensberg,58.15492929999999,13.435664181785295,berg
1187,Oknö,57.00554995,16.51679808104695,ö
1188,Oleby,60.1357057,13.036516,by
1189,Olofsbo,56.92211089999999,12.394237599999999,bo
1190,Olofstorp,57.79855260000001,12.1685918,torp
1191,Olofström,56.278997499999996,14.5333253,ström
1192,Olsfors,57.690874699999995,12.6994668,fors
1193,Olshammar,58.75554029999999,14.799502300000002,hammar
1194,Onsala,57.4272188,12.030270199999999,sala
1195,Onslunda,55.598492900000004,14.0502929,lunda
1196,Ormaryd,57.6665747,14.830860000000001,ryd
1197,Ornäs,60.5101334,15.5385831,näs
1198,Orrefors,56.8394787,15.7486171,fors
1199,Orrhammar,59.08054,16.5635665,hammar
1200,Orrviken,63.1063517,14.437171300000001,viken
1201,Orsa,61.120117500000006,14.622253599999999,
1202,Osby,56.3827464,13.9932853,by
1203,Osbyholm,55.84821039999999,13.610839499999999,holm
1204,Oskar-Fredriksborg,59.39494820000001,18.433715300000003,borg
1205,Oskarshamn,57.2632811,16.4443478,hamn
1206,Oskarström,56.8015614,12.976092999999999,ström
1207,Ostvik,64.881956,21.0638182,vik
1208,Otterbäcken,58.943790299999996,14.039389499999999,bäcken
1209,Oxelösund,58.670016700000005,17.104082100000003,sund
1210,Oxhalsö,59.63711970000001,18.9480227,ö
1211,Oxie,55.5461572,13.0967868,ie
1212,Oxnö,58.8905304,17.846296881292265,ö
1213,Svärdsö,58.86960179999999,17.82985915294354,ö
1214,Pajala,67.20903630000001,23.3647298,ala
1215,Parksidan,59.284221499999994,17.8465631,
1216,Pauliström,57.46889889999999,15.5093906,ström
1217,Persberg,59.7512918,14.2505762,berg
1218,Pershagen,59.1527988,17.6563315,hagen
1219,Perstorp,56.1376968,13.395281400000002,torp
1220,Persön,65.7398285,22.168236,ön
1221,Pilgrimstad,62.9543407,15.0437393,stad
1222,Piperskärr,57.7784912,16.6339946,kärr
1223,Piteå,65.3134764,21.489939399999997,eå
1224,Porjus,66.9600806,19.8222319,
1225,Prästängen,59.6640994,12.5637674,ängen
1226,Pukavik,56.163567099999995,14.680608900000001,vik
1227,Påarp,56.02820195,12.829502490685355,arp
1228,Pålsboda,59.065183700000006,15.3373204,boda
1229,Påläng,65.81377289999999,22.8915091,äng
1230,Påryd,56.56807289999999,15.9265244,ryd
1231,Påskallavik,57.1629535,16.459455900000002,vik
1232,Rabbalshede,58.61076559999999,11.4717781,
1233,Ramdala,56.183646100000004,15.766504300000001,dala
1234,Ramnäs,59.776193799999994,16.1978305,näs
1235,Ramsberg,59.76850579999999,15.3002462,berg
1236,Ramsele,63.538099,16.4686985,sele
1237,Ramstalund,59.798448,17.4428895,lund
1238,Ramvik,62.8168735,17.8654108,vik
1239,Ransta,59.8114103,16.638089,sta
1240,Rappestad,58.410335100000005,15.420873046252073,stad
1241,Reftele,57.175757499999996,13.592978,ele
1242,Rejmyre,58.8300571,15.931366699999998,
1243,Rengsjö,61.362768200000005,16.614325,sjö
1244,Repbäcken,60.5157946,15.3442625,bäcken
1245,Resarö,59.43078415,18.333296313028548,ö
1246,Revingeby,55.72582085,13.459653440449786,by
1247,Riala,59.631719200000006,18.517372899999998,ala
1248,Riddarhyttan,59.8086479,15.5385979,tan
1249,Rimbo,59.745319200000004,18.3601765,bo
1250,Rimforsa,58.137829599999996,15.676202400000001,forsa
1251,Ringarum,58.333783600000004,16.4444307,rum
1252,Rinkaby,55.9821446,14.273104,by
1253,Rinkabyholm,56.6545939,16.2611897,holm
1254,Risby,57.8944956,11.8509627,by
1255,Risögrund,65.81074715,23.244968111892963,grund
1256,Robertsfors,64.1932853,20.8542742,fors
1257,Robertsholm,60.5707507,16.270978200000002,holm
1258,Rockhammar,59.5288853,15.4490551,hammar
1259,Rockneby,56.8042973,16.349063,by
1260,Roknäs,65.3499329,21.1789931,näs
1261,Rolfstorp,57.14525379999999,12.45987,torp
1262,Roma,57.5073932,18.450613399999998,
1263,Romme,60.442504799999995,15.482722299999999,
1264,Ronneby,56.210041700000005,15.2760355,by
1265,Ronnebyhamn,56.178960200000006,15.2948577,hamn
1266,Rosenfors,57.362821700000005,15.8392691,fors
1267,Rosenlund,57.52666120000001,13.344477900000001,lund
1268,Rosersberg,59.581732200000005,17.8881759,berg
1269,Rossö,58.8563895,11.1719875,ö
1270,Rossön,63.92871415000001,16.314311487706185,ön
1271,Rosvik,65.426626,21.692732,vik
1272,Rot,61.256161,14.038113599999999,
1273,Roteberg,61.394776799999995,15.838278699999998,berg
1274,Rottne,57.021676899999996,14.892100400000002,
1275,Rottneros,59.796396400000006,13.1093853,os
1276,Rud,59.318043599999996,13.589043700000001,rud
1277,Ruda,57.109057799999995,16.111250400000003,
1278,Rundvik,63.5411515,19.4402035,vik
1279,Runemo,61.355796,16.1436643,mo
1280,Runtuna,58.872985899999996,17.0744307,tuna
1281,Rusksele,64.8150667,18.8992626,sele
1282,Rutvik,65.6701785,22.0898509,vik
1283,Rya,57.696391000000006,12.3578364,
1284,Ryd,57.725523200000005,13.8678868,ryd
1285,Ryd,56.4632182,14.694239000000001,ryd
1286,Rydaholm,56.9871882,14.309857399999999,holm
1287,Rydal,57.556172,12.693667699999999,dal
1288,Rydbo,59.463626600000005,18.1850248,bo
1289,Rydboholm,57.656557299999996,12.8880531,holm
1290,Rydebäck,55.971276,12.73264128764582,bäck
1291,Rydsgård,55.470789399999994,13.5882902,
1292,Rydsnäs,57.8000215,15.1465728,näs
1293,Rydöbruk,56.96197629999999,13.137766899999999,bruk
1294,Rynge,55.470292799999996,13.6644531,
1295,Vallösa,55.454983,13.6485236,lösa
1296,Ryssby,56.8644924,14.1679128,by
1297,Råby,59.5401056,17.503709699999998,by
1298,Råda,60.005367799999995,13.597393700000001,
1299,Råneå,65.85608810000001,22.2899971,eå
1300,Rångedala,57.7930193,13.125345600000001,dala
1301,Rånnaväg,57.6767437,13.4658773,
1302,Rånäs,59.803183600000004,18.3012255,näs
1303,Rälla,56.7744593,16.5718869,la
1304,Ränneslöv,56.453316,13.076352,löv
1305,Rätan,62.4721216,14.557917600000001,tan
1306,Rättarboda,59.500988199999995,17.6040742,boda
1307,Rättvik,60.8837542,15.1226783,vik
1308,Rävemåla,56.556264299999995,15.264463899999999,måla
1309,Rävlanda,57.6555515,12.4998656,landa
1310,Röbäck,63.809335,20.1875226,bäck
1311,Röda holme,57.3763341,11.9915845,
1312,Rödeby,56.257432200000004,15.618547099999999,by
1313,Rödån,58.05094820000001,14.1552244,
1314,Röke,56.235947100000004,13.522654699999999,
1315,Rönneshytta,58.923791,15.03931,ta
1316,Rönnäng,57.93776139999999,11.586576699999998,äng
1317,Rörtången,57.9197284,11.7558112,
1318,Ödsmåls mosse,57.9147223,11.7768517,
1319,Rörvik,57.2372784,14.5787369,vik
1320,Rörö,57.78118525,11.605982312435074,ö
1321,Röstånga,56.00069839999999,13.291218099999998,
1322,Sala,59.920226799999995,16.605644400000003,sala
1323,Salbohed,59.9113765,16.3494161,hed
1324,Saleby,58.381474399999995,13.1489544,by
1325,Saltsjöbaden,59.2792775,18.304929100000003,
1326,Sandared,57.70985079999999,12.791654,red
1327,Sandarne,61.25949250000001,17.1635332,
1328,Sandhem,57.9873545,13.7706075,hem
1329,Sandhult,57.7695628,12.820944,hult
1330,Sandskogen,55.762881799999995,12.982192199999998,skogen
1331,Sandslån,63.013536800000004,17.797665,
1332,Sandviken,59.271947499999996,17.5098954,viken
1333,Sandviken,60.619422,16.772421400000002,viken
1334,Sangis,65.85578910000001,23.495749800000002,
1335,Sankt Olof,55.63669300000001,14.129242699999999,
1336,Saxdalen,60.1508772,14.976220600000001,dalen
1337,Saxnäs,56.6866512,16.4919553,näs
1338,Saxtorpsskogen,55.82898839999999,12.9421429,skogen
1339,Segersta,61.26669329999999,16.6450524,sta
1340,Segersäng,59.02718910000001,17.936567,äng
1341,Segmon,59.274787800000006,13.042653199999998,
1342,Selja,61.01754920000001,14.4712275,
1343,Selånger,62.4042125,17.126562182517404,ånger
1344,Sennan,56.7740995,12.9779011,
1345,Seskarö,65.7264586,23.73135524921875,ö
1346,Sexdrega,57.5768534,13.1179214,
1347,Sibbhult,56.2694044,14.195023499999998,hult
1348,Sibble,59.11286750000001,17.7449282,
1349,Sibo,61.216435100000005,16.604210899999998,bo
1350,Sidensjö,63.292377,18.297425,sjö
1351,Sifferbo,60.557505299999995,15.222898,bo
1352,Norrmannebo,57.9818845,12.1128065,bo
1353,Sigtuna,59.6165201,17.7236301,tuna
1354,Siljansnäs,60.7753921,14.857697,näs
1355,Silverdalen,57.543427799999996,15.7479644,dalen
1356,Simlångsdalen,56.7209468,13.130926800000001,dalen
1357,Simonstorp,58.786108299999995,16.1545926,torp
1358,Simrishamn,55.5565541,14.349990300000002,hamn
1359,Sjuhalla,56.1888994,15.562280900000001,la
1360,Sjulsmark,65.5198598,21.4915707,mark
1361,Sjunnen,57.4359875,15.172909599999999,
1362,Sjunnerup,55.9686345,13.567689300000001,erup
1363,Sjuntorp,58.188230299999994,12.2268778,torp
1364,Själsö,57.6959147,18.3603322,ö
1365,Sjöbo,55.63508670000001,13.7031168,bo
1366,Sjögestad,58.365061399999995,15.371217399999999,stad
1367,Sjömarken,57.7156666,12.835157,
1368,Viared,57.6992238,12.835774728701178,red
1369,Sjörröd,56.139742299999995,13.726699599999998,röd
1370,Sjösa,58.776571,17.086447,
1371,Sjöskogen,58.2867121,11.830503,skogen
1372,Strand,58.2536821,11.8607035,strand
1373,Sjötorp,58.837351,13.980023300000001,torp
1374,Sjövik,57.9159324,12.3706097,vik
1375,Skanör med Falsterbo,55.4060076,12.8443425,bo
1376,Skara,58.384607499999994,13.439767499999999,
1377,Skarpö,59.410702,18.3737969,ö
1378,Skattkärr,59.413381900000005,13.674373000000001,kärr
1379,Skattungbyn,61.18573829999999,14.8481986,byn
1380,Skavkulla,56.17394109999999,15.5063009,la
1381,Skillingenäs,56.1743165,15.520853299999999,näs
1382,Skebobruk,59.968548,18.6120159,bruk
1383,Skebokvarn,59.063548600000004,16.71446,kvarn
1384,Skeda udde,58.2916744,15.559967000000002,udde
1385,Skedala,56.693218,12.9738593,dala
1386,Skede,57.47021070000001,15.176759699999998,skede
1387,Skedvi,60.405275399999994,15.8131646,vi
1388,Skee,58.92441360000001,11.269042800000001,
1389,Skegrie,55.4063152,13.082367199999998,ie
1390,Skelleftehamn,64.6876037,21.2363924,hamn
1391,Skellefteå,64.7520185,20.959339,eå
1392,Skepplanda,57.9825743,12.2124766,landa
1393,Skeppshult,57.1263567,13.361951300000001,hult
1394,Skeppsvik,58.6259473,16.8136387,vik
1395,Skiftinge,59.3899157,16.5380671,inge
1396,Skillingaryd,57.42894739999999,14.091985000000001,ryd
1397,Skillinge,55.475713,14.279918599999998,inge
1398,Skinnskatteberg,59.8297956,15.687780199999999,berg
1399,Skivarp,55.4246303,13.569718799999999,arp
1400,Skoby,60.033424399999994,18.0295079,by
1401,Skoghall,59.3241856,13.470522899999999,hall
1402,Skogsby,56.628708200000005,16.513312,by
1403,Skottorp,56.450007400000004,12.9616174,torp
1404,Skruv,56.6767988,15.3656904,skruv
1405,Skultorp,58.341621499999995,13.8279906,torp
1406,Skultuna,59.721776600000005,16.4281471,tuna
1407,Skumparp,55.53567795,12.966028486426053,arp
1408,Skurup,55.4840328,13.501590900000002,rup
1409,Skutskär,60.6352228,17.4092868,
1410,Skyttorp,60.0808924,17.7357953,torp
1411,Skålö,60.5638615,14.3015728,ö
1412,Skånes-Fagerhult,56.370506000000006,13.4651703,hult
1413,Skåne-Tranås,55.61404739999999,13.993737099999999,ås
1414,Skåpafors,59.02283979999999,12.289002400000001,fors
1415,Skåre,59.4359654,13.439949300000002,
1416,Skällinge,57.1821685,12.4683439,inge
1417,Skällåkra,57.2558377,12.1512651,åkra
1418,Lingome,57.2622902,12.142381599999998,
1419,Skänninge,58.3955804,15.086770499999998,inge
1420,Skärblacka,58.5758928,15.923000199999997,
1421,Skärhamn,57.9909221,11.549795,hamn
1422,Skärplinge,60.4741563,17.762776300000002,inge
1423,Skärstad,57.88809129999999,14.3640361,stad
1424,Sköldinge,59.031551199999996,16.445463399999998,inge
1425,Sköllersta,59.1376926,15.3376959,sta
1426,Skölsta,59.8762844,17.748717199999998,sta
1427,Skövde,58.3898453,13.844379199999999,
1428,Slaka,58.35969695,15.553717818260818,
1429,Slite,57.70722070000001,18.8019196,
1430,Slottsbron,59.323820999999995,13.1041323,bron
1431,Slottsskogen,59.693445700000005,17.6144313,skogen
1432,Slädaviken,62.434474300000005,17.4728139,viken
1433,Åssjön,62.44442660000001,17.484523199999998,sjön
1434,Slätthult,57.770011600000004,12.348094099999999,hult
1435,Slöinge,56.8551345,12.690862599999999,inge
1436,Smedby,56.6796081,16.236496799999998,by
1437,Smedjebacken,60.141496499999995,15.4151046,backen
1438,Smedseröd,58.3654305,11.807151600000001,röd
1439,Smedstorp,55.5503755,14.1166821,torp
1440,Smygehamn,55.346446900000004,13.374123,hamn
1441,Smålandsstenar,57.162696,13.411558800000002,
1442,Smögen,58.353644700000004,11.2261188,
1443,Snogeröd,55.838666,13.4941583,röd
1444,Snöveltorp,58.5009429,16.1616048,torp
1445,Solberga,59.501839100000005,18.3480563,berga
1446,Solberga,57.7345037,14.7492309,berga
1447,Solberga,56.963981999999994,16.3971919,berga
1448,Ålem,56.954195999999996,16.3843861,
1449,Sollebrunn,58.11999960000001,12.533111300000002,brunn
1450,Sollefteå,63.1535799,17.235568470893867,eå
1451,Sollerön,60.91329875,14.615740092821126,ön
1452,Solvarbo,60.390240799999994,15.6708337,bo
1453,Sommen,58.1380068,14.965424800000003,
1454,Sonstorp,58.72462049999999,15.634397400000001,torp
1455,Sorsele,65.53306629999999,17.536873999999997,sele
1456,Sorunda,59.01438420000001,17.8210502,
1457,Sparreholm,59.0716301,16.8292983,holm
1458,Spekeröd,58.0328264,11.8701282,röd
1459,Spillersboda,59.702861899999995,18.8563702,boda
1460,Spjutsbygd,56.3113304,15.5954315,
1461,Spjutstorp,55.57995179999999,14.0145542,torp
1462,Spjälkö,56.16063079999999,15.211274800000002,ö
1463,Saxemara,56.166783200000005,15.2291068,
1464,Spångsholm,58.35250799999999,15.2361796,holm
1465,Spånlöt,59.4951826,18.3111223,löt
1466,Staffanstorp,55.642739299999995,13.211399300000002,torp
1467,Stallarholmen,59.3612799,17.2071432,holmen
1468,Stare,58.9162161,11.2092504,
1469,Stava,59.49756609999999,18.2290557,
1470,Stavreviken,62.553498100000006,17.4097038,viken
1471,Stavsjö,58.72385179999999,16.4183409,sjö
1472,Stavsnäs,59.2882014,18.6917822,näs
1473,Stehag,55.9031519,13.393866699999998,
1474,Stenared,57.805243700000005,12.189724,red
1475,Stenhamra,59.33474939999999,17.687364600000002,
1476,Steninge,56.770603200000004,12.634345300000001,inge
1477,Steningehöjden,59.6214605,17.7963321,
1478,Stenis,60.9482775,14.461244400000002,
1479,Stennäset,60.6356233,15.596236300000001,
1480,Stensele,65.067883,17.1477556,sele
1481,Stensjön,57.58189960000001,14.820178699999998,sjön
1482,Stenstorp,58.2713175,13.713327599999998,torp
1483,Stensättra,59.240838100000005,17.3904142,sättra
1484,Stenungsund,58.0725069,11.8229383,sund
1485,Stenungsön,58.06697355,11.800585148424053,ön
1486,Sticklinge udde,59.39058539999999,18.107535964194874,udde
1487,Stigen,58.568790299999996,12.058114300000002,
1488,Stigtomta,58.802763899999995,16.7853448,tomta
1489,Stilleryd,56.1731491,14.8198856,ryd
1490,Stjärnhov,59.080099,17.013662600000004,hov
1491,Stoby,56.1755969,13.8279244,by
1492,Stocka,61.89819920000001,17.3330136,
1493,Stockamöllan,55.94569,13.373799800000002,
1494,Stockaryd,57.3195952,14.591119099999998,ryd
1495,Stockholm,59.3251172,18.0710935,holm
1496,Stockvik,62.3478034,17.3648359,vik
1497,Stora Bugärde,57.653878000000006,12.397367599999999,
1498,Stora Frö,56.57158979999999,16.4176559,ö
1499,Haga Park,56.578920600000004,16.4103237,
1500,Stora Herrestad,55.474891799999995,13.874225,stad
1501,Stora Höga,58.0143358,11.8284496,
1502,Stora Levene,58.3255179,12.923582699999999,ene
1503,Stora Mellby,58.141468200000006,12.579785300000001,by
1504,Stora Mellösa,59.2106135,15.4975503,lösa
1505,Stora Vika,58.955645999999994,17.785737,vika
1506,Storebro,57.58574960000001,15.840513,bro
1507,Storfors,59.531639299999995,14.2726055,fors
1508,Storholmen,59.39703605,18.139515834825637,holmen
1509,Storuman,65.0950769,17.1179718,
1510,Storvik,60.5828533,16.5253652,vik
1511,Storvreta,59.9569381,17.704209600000002,ta
1512,Storå,59.7136,15.135533800000001,rå
1513,Strandskogen,58.2444689,11.8648817,skogen
1514,Restenäs,58.2375147,11.8780339,näs
1515,Ulvesund,58.2241739,11.8900356,sund
1516,Striberg,59.5454324,14.941675,berg
1517,Strålsnäs,58.237724699999994,15.091667999999999,näs
1518,Strångsjö,58.905360200000004,16.199816000000002,sjö
1519,Stråssa,59.739452500000006,15.201540900000001,
1520,Strängnäs,59.376315500000004,17.026819399999997,näs
1521,Strömma,59.2877529,18.5460128,
1522,Strömsbruk,61.8699,17.3171716,bruk
1523,Strömsholm,59.523741099999995,16.248735999999997,holm
1524,Strömsnäsbruk,56.552468000000005,13.731973199999999,bruk
1525,Strömstad,58.9377567,11.173609599999999,stad
1526,Strömsund,63.8516664,15.5582353,sund
1527,Strövelstorp,56.1661094,12.837575099999999,torp
1528,Stugun,63.16787779999999,15.600485500000001,
1529,Sturefors,58.336740799999994,15.7211576,fors
1530,Sturkö,56.09867475,15.664782681919911,ö
1531,Styrsö,57.609428099999995,11.7821491669222,ö
1532,Stånga,57.2814545,18.471394699999998,
1533,Stångby,55.7492797,13.194780499999998,by
1534,Stångehamn,57.4318765,16.641533,hamn
1535,Rixö,58.367041799999996,11.455497900000001,ö
1536,Ställdalen,59.934554299999995,14.9454438,dalen
1537,Stöcke,63.74255920000001,20.231426000000003,
1538,Stöcksjö,63.7793899,20.1957258,sjö
1539,Stöde,62.41777679999999,16.5782727,
1540,Stöllet,60.4100453,13.26975,
1541,Stöpen,58.478527299999996,13.8667206,
1542,Sulvik,59.6782709,12.4152191,vik
1543,Sund,58.9593988,17.415005899999997,sund
1544,Sundborn,60.6541762,15.781320499999998,born
1545,Sundby,59.35301139999999,17.711949800000003,by
1546,Sundbyholm,59.4382728,16.6198714,holm
1547,Sundom,65.7721306,22.264301899999996,om
1548,Sundsvall,62.3907552,17.307102399999998,vall
1549,Sunnansjö,60.2214593,14.960771,sjö
1550,Sunne,59.8401813,13.135480800000002,
1551,Sunnemo,59.8842838,13.7222647,mo
1552,Surahammar,59.707057999999996,16.2219947,hammar
1553,Surte,57.8267626,12.0161635,
1554,Svalsta,58.743096400000006,16.8751319,sta
1555,Svalöv,55.905299899999996,13.1067088,löv
1556,Svanberga,59.8403637,18.662935100000002,berga
1557,Svaneholm,59.176351600000004,12.5508503,holm
1558,Svanesund,58.14303689999999,11.819062800000001,sund
1559,Svappavaara,67.6469235,21.0554854,vaara
1560,Svartbyn,66.2596305,22.8203593,byn
1561,Svarte,55.4309311,13.7151312,
1562,Svartehallen,58.118233999999994,11.957990400000002,
1563,Svartudden,65.31801800000001,21.5179836,udden
1564,Svartvik,62.3156779,17.371002800000003,vik
1565,Svartå,59.1336833,14.513681900000002,å
1566,Svedala,55.515242099999995,13.238435800000001,dala
1567,Sveg,62.036070900000006,14.3598392,
1568,Svenljunga,57.4963122,13.112259900000002,ljunga
1569,Svensbyn,65.310331,21.2346127,byn
1570,Svenshögen,58.1446436,11.9383898,
1571,Svenstavik,62.766806,14.432422299999999,vik
1572,Svenstorp,56.340221299999996,12.927292900000001,torp
1573,Svinninge,59.449482999999994,18.2835116,inge
1574,Svängsta,56.261980799999996,14.774798800000001,sta
1575,Svärdsjö,60.74229770000001,15.9038464,sjö
1576,Svärtinge,58.6502647,16.029186,inge
1577,Sya,58.3347327,15.223076999999998,
1578,Sysslebäck,60.730431200000005,12.8711737,bäck
1579,Sågmyra,60.7134001,15.296540700000001,
1580,Säffle,59.132931400000004,12.9248679,
1581,Sälen,61.15572370000001,13.269408800000003,sälen
1582,Sälgsjön,60.6176055,17.1136047,sjön
1583,Sänna,58.794425,14.980115900000001,
1584,Särna,61.693164100000004,13.142296100000001,
1585,Säter,60.3469718,15.7486886,säter
1586,Sätila,57.54123440000001,12.435089300000001,la
1587,Sätinge,57.444200300000006,12.137018199999998,inge
1588,Sätra brunn,59.8629032,16.4420517,brunn
1589,Sävar,63.902075,20.5523163,
1590,Sävast,65.7616574,21.7510243,
1591,Säve,57.8034878,11.9117067,ve
1592,Sävja,59.811622899999996,17.7005617,
1593,Sävsjö,57.4021387,14.6667098,sjö
1594,Söderby,59.38241529999999,17.580302800000002,by
1595,Söderby,59.05879010000001,18.066951800000002,by
1596,Söderby-Karl,59.894174,18.702302,
1597,Söderbärke,60.073010100000005,15.564555599999998,
1598,Söderfors,60.38813270000001,17.2412588,fors
1599,Söderhamn,61.29985010000001,17.060759899999997,hamn
1600,Söderköping,58.4823802,16.321622400000003,köping
1601,Söderskogen,59.6762029,17.595891899999998,skogen
1602,Södersvik,59.7501161,18.915614399999995,vik
1603,Södertälje,59.1964289,17.6271663,
1604,Söderåkra,56.446031999999995,16.0706166,åkra
1605,Södra Bergsbyn,64.7230035,21.0803048,byn
1606,Stackgrönnan,64.7078101,21.1222077,
1607,Södra Sandby,55.7171687,13.3474337,by
1608,Södra Sunderbyn,65.6541627,21.953414399999996,byn
1609,Södra Vi,57.7414559,15.796053099999998,vi
1610,Sölvesborg,56.0506535,14.5871906,borg
1611,Sörfors,63.8729785,20.036461,fors
1612,Sörforsa,61.7178872,16.9696608,forsa
1613,Sörmjöle,63.6799465,20.002339000000003,
1614,Sörstafors,59.58306170000001,16.2107611,fors
1615,Sörvik,60.1869127,15.147367000000001,vik
1616,Söråker,62.504549399999995,17.5086121,åker
1617,Sösdala,56.040630099999994,13.6814934,dala
1618,Sövde,55.5850316,13.673597199999998,
1619,Sövestad,55.5013994,13.795260800000001,stad
1620,Taberg,57.67894770000001,14.091865599999998,berg
1621,Tallboda,58.430858799999996,15.6865902,boda
1622,Tallvik,66.33726039999999,22.84768535176228,vik
1623,Tallåsen,61.8640327,16.0143965,åsen
1624,Tandsbyn,63.0009228,14.7453133,byn
1625,Tanumshede,58.7219089,11.332385400000001,
1626,Tavelsjö,64.0358824,20.0502172,sjö
1627,Teckomatorp,55.86653960000001,13.0903581,torp
1628,Tenhult,57.7066549,14.321033499999999,hult
1629,Tibro,58.424890500000004,14.163119400000001,bro
1630,Tidaholm,58.1803687,13.9596994,holm
1631,Tidan,58.5722621,14.0074481,
1632,Tidö-Lindö,59.51282220000001,16.531577992856356,ö
1633,Tierp,60.34296139999999,17.5168395,
1634,Tillberga,59.6867049,16.6183479,berga
1635,Timmele,57.8619045,13.4285513,ele
1636,Timmernabben,56.970845,16.4360983,
1637,Timmersdala,58.5276731,13.7594326,dala
1638,Timrå,62.51206105,17.334614298183162,rå
1639,Tingsryd,56.5279063,14.9771884,ryd
1640,Tingstäde,57.7357591,18.6136895,städe
1641,Tjautjas,67.3266074,20.7366992,
1642,Tjuvkil,57.8962667,11.7296301,kil
1643,Tjällmo,58.71515060000001,15.3545013,mo
1644,Tjörnarp,55.9999833,13.6350456,arp
1645,Toarp,56.2828098,12.9482546,arp
1646,Tåstarp,56.2786918,12.9496127,arp
1647,Tobo,60.25739599999999,17.6564877,bo
1648,Tofta,57.5208067,18.168597199999997,tofta
1649,Tofta,57.1732554,12.2970765,tofta
1650,Toftbyn,60.71323220000001,15.785604000000001,byn
1651,Tollarp,55.9340622,13.9751411,arp
1652,Tollered,57.8187295,12.4226791,red
1653,Tomelilla,55.54379839999999,13.954122199999999,la
1654,Tomtebo,63.80857515,20.376449203012236,bo
1655,Torbjörntorp,58.20990079999999,13.603458154883555,torp
1656,Torekov,56.4262975,12.626767599999999,
1657,Torestorp,57.385288,12.6826137,torp
1658,Torhamn,56.0952686,15.831092300000002,hamn
1659,Tormestorp,56.11158029999999,13.7442081,torp
1660,Torna Hällestad,55.678976500000005,13.4184657,stad
1661,Torpsbruk,57.034375,14.5710085,bruk
1662,Torpshammar,62.4761655,16.3313557,hammar
1663,Torreby,58.44223620000001,11.598761999999999,by
1664,Torsby,60.1355208,13.006788400000001,by
1665,Torshälla,59.419243,16.4749442,la
1666,Torskog,58.0339884,12.1389969,skog
1667,Svenseröd,58.049641599999994,12.1398897,röd
1668,Torslanda,57.72437420000001,11.7653423,landa
1669,Torsåker,60.5132355,16.4753234,åker
1670,Torsång,60.463520700000004,15.5696291,
1671,Torsås,56.412408400000004,16.0030732,ås
1672,Tortuna,59.6747022,16.7224648,tuna
1673,Torup,56.953542500000005,13.074461999999999,rup
1674,Totebo,57.6308558,16.186627800000004,bo
1675,Tranemo,57.4849975,13.351753400000002,mo
1676,Tranholmen,59.375851899999994,18.086003,holmen
1677,Transtrand,61.0903702,13.321705300000001,strand
1678,Tranås,58.0379566,14.9776937,ås
1679,Traryd,56.5791691,13.7525372,ryd
1680,Trekanten,56.699905799999996,16.1167106,
1681,Trelleborg,55.375919999999994,13.1461522,borg
1682,Trollhättan,58.2827931,12.2908612,tan
1683,Trosa,58.896705700000005,17.5478116,
1684,Trummenäs,56.156451399999995,15.7331598,näs
1685,Trångfors,65.8196096,21.6149546,fors
1686,Trångsviken,63.3331316,14.016113,viken
1687,Tråvad,58.251866299999996,13.085384699999999,vad
1688,Trädet,57.9856336,13.531922400000001,
1689,Trödje,60.8189584,17.2145708,
1690,Trönninge,56.6170885,12.9462505,inge
1691,Tumba,59.1996086,17.8363075,
1692,Tumbo,59.4296887,16.339888199999997,bo
1693,Tumlehed,57.7288181,11.7433701,hed
1694,Tuna,59.2338589,17.5165902,tuna
1695,Tuna,57.5769267,16.104558100000002,tuna
1696,Tuna,55.9132169,12.6896394,tuna
1697,Tunnerstad,58.047598,14.337399,stad
1698,Tuolluvaara,67.8487083,20.3367729,vaara
1699,Tureholm,59.315941200000005,17.7264626,holm
1700,Turinge,59.1960163,17.441376100000003,inge
1701,Vidbynäs,59.198240399999996,17.469172369004085,näs
1702,Tving,56.3102802,15.4629325,
1703,Tvärskog,56.6236335,16.0412552,skog
1704,Tvärålund,64.0992442,19.670260100000004,lund
1705,Tye,59.345907499999996,13.5617065,
1706,Tygelsjö,55.5146694,13.0017156,sjö
1707,Tynningö,59.37757439999999,18.392701354869896,ö
1708,Tyringe,56.1602044,13.6042633,inge
1709,Tystberga,58.84934820000001,17.234323999999997,berga
1710,Tågarp,55.924772700000005,12.9548931,arp
1711,Tånga,56.1986627,12.770937,
1712,Rögle,56.188222100000004,12.773736300000001,
1713,Tångaberg,57.17462239999999,12.2258909,berg
1714,Täfteå,63.839675,20.475946899999997,eå
1715,Täljö,59.471790399999996,18.2391946,ö
1716,Tällberg,60.8256353,14.994580599999999,berg
1717,Tärnaby,65.7131764,15.282744899999999,by
1718,Tärnsjö,60.1545625,16.927510100000003,sjö
1719,Tävelsås,56.7698924,14.823869699999998,ås
1720,Töcksfors,59.5093152,11.8425198,fors
1721,Töllsjö,57.797309899999995,12.6347606,sjö
1722,Töre,65.9131293,22.6478278,
1723,Töreboda,58.7081061,14.123973800000002,boda
1724,Törestorp,57.29518149999999,13.8482423,torp
1725,Tösse,58.97190429999999,12.6448606,
1726,Ubbhult,57.579374699999995,12.3565219,hult
1727,Ucklum,58.0844446,11.9569194,um
1728,Uddebo,57.473974399999996,13.26539,bo
1729,Uddeholm,60.024766799999995,13.6190078,holm
1730,Udden,59.432399399999994,16.4211944,udden
1731,Uddevalla,58.349055500000006,11.9382855,valla
1732,Uddheden,59.9459831,12.910784699999999,heden
1733,Ullared,57.136086,12.715631199999999,red
1734,Ullervad,58.6668348,13.856477700000001,vad
1735,Ullånger,63.010456700000006,18.1844672,ånger
1736,Ulricehamn,57.7913848,13.4130426,hamn
1737,Ultuna,59.8191036,17.650986399999997,tuna
1738,Ulvkälla,62.0231583,14.365271400000001,la
1739,Ulvåker,58.4736248,13.9285277,åker
1740,Umeå,63.8256568,20.2630745,eå
1741,Unbyn,65.71072,21.747413199999997,byn
1742,Undenäs,58.656896499999995,14.3988477,näs
1743,Undersåker,63.31468639999999,13.2420533,åker
1744,Unnaryd,56.9545347,13.528480199999999,ryd
1745,Upphärad,58.1582642,12.3048591,härad
1746,Upplanda,60.226979099999994,17.7325337,landa
1747,Upplands Väsby,59.48138,17.84385,by
1748,Sollentuna,59.4293164,17.950055600000002,tuna
1749,Uppsala,59.85861260000001,17.6387436,sala
1750,Urshult,56.531825899999994,14.8112359,hult
1751,Ursviken,64.70812420000001,21.176686899999996,viken
1752,Utby,58.333811399999995,11.7868925,by
1753,Utvälinge,56.21574739999999,12.7807089,inge
1754,Vad,60.02830079999999,15.650678099999999,vad
1755,Vad,61.2852855,17.1345454,vad
1756,Åsbacka,61.274028099999995,17.154399800000004,backa
1757,Långrör,61.2736441,17.1543734,ör
1758,Vadstena,58.4488105,14.891592800000002,
1759,Vaggeryd,57.4980578,14.148478699999998,ryd
1760,Vagnhärad,58.9468803,17.495592300000002,härad
1761,Valbo,60.6447772,17.012276500000002,bo
1762,Valdemarsvik,58.20259010000001,16.6032191,vik
1763,Valinge,57.171131200000005,12.381098199999998,inge
1764,Valje,56.06459770000001,14.5442456,
1765,Valla,59.02130329999999,16.3795455,valla
1766,Vallargärdet,59.47736,13.5843152,
1767,Vallberga,56.467675799999995,13.023652400000001,berga
1768,Vallda,57.4726782,11.999075999999999,
1769,Vallentuna,59.5332247,18.0764505,tuna
1770,Vallkärra,55.73993225,13.180832299330394,
1771,Vallsta,61.5157708,16.3646643,sta
1772,Vallvik,61.18436559999999,17.176344399999998,vik
1773,Vallåkra,55.9576243,12.894094381934456,åkra
1774,Valskog,59.4426593,15.948847099999998,skog
1775,Valåsen,59.3095555,14.5868765,åsen
1776,Labbsand,59.29344985,14.548125452296444,
1777,Vankiva,56.2003645,13.741501800000002,
1778,Vannsätter,61.2608002,16.788084,sätter
1779,Vansbro,60.5102674,14.2255613,bro
1780,Vaplan,63.3355051,14.215024599999998,
1781,Vara,58.261062800000005,12.952146800000001,
1782,Varberg,57.105741200000004,12.2502949,berg
1783,Varekil,58.1253446,11.7197673,kil
1784,Vargön,58.358103899999996,12.4003624,ön
1785,Varnhem,58.385343500000005,13.6505707,hem
1786,Vartofta,58.0960676,13.632775899999999,tofta
1787,Vassmolösa,56.5985328,16.1649125,lösa
1788,Vattholma,60.01905079999999,17.7327925,holma
1789,Vattjom,62.365063799999994,17.0338053,om
1790,Vattubrinken,59.2438678,17.5828515,
1791,Vaxholm,59.40406,18.331331,holm
1792,Veberöd,55.63349960000001,13.4925649,röd
1793,Veddige,57.268171499999994,12.3374641,ige
1794,Vedevåg,59.5247066,15.297993099999998,
1795,Vedum,58.171041599999995,12.995567699999999,um
1796,Vegby,57.6788601,13.3742261,by
1797,Veinge,56.55402579999999,13.076164599999998,inge
1798,Velanda,58.22871800000001,12.3102334,landa
1799,Vellinge,55.470895,13.0199449,inge
1800,Vemdalen,62.4451674,13.8628202,dalen
1801,Vena,57.52080479999999,15.968914499999999,
1802,Venjan,60.9527537,13.910921700000001,
1803,Venngarn,59.6486543,17.719711349065477,garn
1804,Vessigebro,56.9786275,12.658665199999998,bro
1805,Vetlanda,57.4260178,15.0870226,landa
1806,Vi,62.4283334,17.418437,vi
1807,Vibble,57.6038368,18.249661399999997,
1808,Viby,56.015701899999996,14.228774599999998,by
1809,Vickleby,56.581931700000005,16.458896799999998,by
1810,Vidja,59.19716510000001,18.0596931,
1811,Vidsel,65.8336059,20.5200884,sel
1812,Vidöåsen,59.34197710000001,13.453336300000002,åsen
1813,Viforsen,62.3135815,17.1620312,forsen
1814,Tunbyn,62.3038309,17.2594,byn
1815,Vik,55.6139486,14.289299800000002,vik
1816,Vika,60.51274870000001,15.7107596,vika
1817,Vikarbodarna,62.20035920000001,17.4850451,bodarna
1818,Skatan,62.1955154,17.502781,tan
1819,Vikarbyn,60.399665899999995,16.1056339,byn
1820,Viken,56.1514828,12.5725481,viken
1821,Vikingstad,58.3832417,15.433245199999998,stad
1822,Vikmanshyttan,60.2990095,15.8310513,tan
1823,Viksjöfors,61.3375225,15.952948499999998,fors
1824,Viksäter,59.2397245,17.6203818,säter
1825,Vilhelmina,64.6257185,16.6541624,
1826,Villshärad,56.6911436,12.6958754,härad
1827,Vilshult,56.35433760000001,14.4826247,hult
1828,Vimmerby,57.6653495,15.856326900000001,by
1829,Vinberg,56.9494886,12.5480458,berg
1830,Vinbergs,56.9323022,12.549085,
1831,Vindeln,64.2024817,19.7177522,
1832,Vindön,58.299203399999996,11.6917183,ön
1833,Vingåker,59.0433723,15.8715565,åker
1834,Vinninga,58.4537545,13.2602117,inga
1835,Vinslöv,56.102213,13.909576800000002,löv
1836,Vintrie,55.55297710000001,12.962067300000001,ie
1837,Vintrosa,59.242526500000004,14.926342199999999,
1838,Vinäs,60.9678943,14.5402536,näs
1839,Virsbo,59.8713688,16.048057500000002,bo
1840,Virserum,57.3168544,15.5868533,rum
1841,Visby,57.637936100000005,18.297982,by
1842,Viskafors,57.6307502,12.8492076,fors
1843,Vislanda,56.787226100000005,14.4515835,landa
1844,Vissefjärda,56.5355233,15.586146900000001,
1845,Vistträsk,65.6928463,20.6486375,träsk
1846,Vitaby,55.68497760000001,14.1535475,by
1847,Vittangi,67.6782861,21.6501879,
1848,Vittaryd,56.9707555,13.9467913,ryd
1849,Vittinge,59.9043329,17.061062600000003,inge
1850,Vittjärv,65.85023460000001,21.5902918,
1851,Vittsjö,56.34192370000001,13.6654927,sjö
1852,Vittskövle,55.85730649999999,14.1473983,
1853,Vollsjö,55.705442500000004,13.790058199999999,sjö
1854,Vrena,58.86015820000001,16.6982639,
1855,Vretstorp,59.02355550000001,14.8668288,torp
1856,Vrigstad,57.354616099999994,14.4741323,stad
1857,Vrångö,57.57564675,11.785133063703821,ö
1858,Vuollerim,66.4295605,20.6024171,
1859,Vålberg,59.3953811,13.1934701,berg
1860,Våmhus,61.11686070000001,14.477964800000002,hus
1861,Vånga,58.583889299999996,15.8153264,
1862,Vånga,56.1823728,14.373710199999998,
1863,Vångelsta,59.8065394,17.534188600000004,sta
1864,Vårgårda,58.03164920000001,12.809040699999999,
1865,Vårsta,59.1653304,17.7959288,sta
1866,Våxtorp,56.41930229999999,13.115896300000001,torp
1867,Väckelsång,56.640268299999995,14.9175054,
1868,Väderstad,58.3114358,14.923643799999999,stad
1869,Väggarp,55.7867826,13.2412486,arp
1870,Väländan,59.112956999999994,17.987988,
1871,Vänersborg,58.3811988,12.3226877,borg
1872,Väne-Åsaka,58.249052,12.41736,
1873,Vänge,59.8586465,17.430238,änge
1874,Vännäs,63.90593470000001,19.7512844,näs
1875,Vännäsby,63.9148885,19.824866699999998,by
1876,Väring,58.5112433,13.9608356,
1877,Värnamo,57.18327829999999,14.0483437,mo
1878,Värsås,58.349996,14.0492704,ås
1879,Väröbacka,57.2511262,12.1807163,backa
1880,Väse,59.3844824,13.8528775,
1881,Väskinde,57.6911784,18.420183899999998,
1882,Västanvik,60.7314451,14.9442143,vik
1883,Västerberg,60.5989125,16.5506091,berg
1884,Västerby,60.3134059,15.9256796,by
1885,Västerfärnebo,59.9461306,16.279683900000002,bo
1886,Västerhaninge,59.1221593,18.1085969,inge
1887,Västerhejde,57.5855927,18.227334,
1888,Västerljung,58.921333499999996,17.447492800000003,
1889,Västerlösa,58.42255555,15.35012788404897,lösa
1890,Västermyckeläng,61.212874600000006,14.0313545,äng
1891,Västervik,57.7594186,16.6385035,vik
1892,Västerås,59.611099200000005,16.5463679,ås
1893,Västra Bispgården,63.024153500000004,16.6354903,gården
1894,Västra Bodarna,57.887722399999994,12.4743025,bodarna
1895,Västra Hagen,57.4216681,11.9408574,hagen
1896,Västra Husby,58.4868626,16.1720543,by
1897,Västra Ingelstad,55.49046920000001,13.1123622,stad
1898,Västra Karaby,55.8109022,13.051412800000001,by
1899,Västra Karup,56.411539299999994,12.743405699999999,rup
1900,Västra Tommarp,55.397667000000006,13.1023869,arp
1901,Västra Torup,56.142117500000005,13.5020136,rup
1902,Västra Ämtervik,59.7271728,13.1432142,vik
1903,Växjö,56.878718299999996,14.8094385,ö
1904,Yngsjö,55.882769999999994,14.229382300000001,sjö
1905,Ysane,56.08896800000001,14.649451800000001,
1906,Ysby,56.4933152,13.1199661,by
1907,Ystad,55.432984899999994,13.8196555,stad
1908,Ytterby,57.86202610000001,11.917842199999999,by
1909,Ytterhogdal,62.177209700000006,14.9394367,dal
1910,Ytternäs,59.782188100000006,17.6039593,näs
1911,Vreta,59.87517929999999,18.0768362,ta
1912,Yttersjö,63.7869284,19.9844773,sjö
1913,Ytterstad,57.8290096,12.208624,stad
1914,Zinkgruvan,58.8154355,15.1066261,
1915,Åby,58.6621485,16.175925699999997,by
1916,Åby,57.0258125,14.7786687,by
1917,Åbyggeby,60.72902165,17.125181882413518,by
1918,Åbytorp,59.1263753,15.0825196,torp
1919,Åhus,55.923516500000005,14.295522199999999,hus
1920,Åkarp,55.65232099999999,13.1085165,arp
1921,Åkers styckebruk,59.2564417,17.1080216,bruk
1922,Åkersberga,59.48235160000001,18.294398100000002,berga
1923,Ålberga,58.72504250000001,16.5809527,berga
1924,Åled,56.74395820000001,12.9422791,led
1925,Åminne,57.1240466,14.0085207,minne
1926,Åmmeberg,58.8656103,14.9991924,berg
1927,Åmot,60.965613299999994,16.451242999999998,
1928,Åmotfors,59.76258670000001,12.362227,fors
1929,Åmunnen,56.62769670000001,16.2368059,
1930,Åmynnet,63.1861108,18.5306961,
1931,Åmål,59.054803,12.7057062,
1932,Ånge,62.524336399999996,15.660400199999998,
1933,Ånäset,64.2789836,21.044798699999998,
1934,Åre,63.40108879999999,13.0822241,
1935,Årjäng,59.39278620000001,12.1352312,äng
1936,Årnäs,57.205955200000005,12.2104454,näs
1937,Årsta havsbad,59.0862267,18.165957100000004,
1938,Årstad,56.91847070000001,12.6757396,stad
1939,Årsunda,60.5150767,16.7334186,sunda
1940,Åryd,56.8272591,14.979361800000001,ryd
1941,Åryd,56.206707900000005,15.009073,ryd
1942,Ås,59.5283747,14.989225199999998,ås
1943,Ås,63.2471934,14.5661957,ås
1944,Åsa,57.3509306,12.1233898,åsa
1945,Åsarna,62.645936999999996,14.370560300000001,
1946,Åsarp,58.0238488,13.568091,arp
1947,Åsbro,58.996949,15.057801699999999,bro
1948,Åsby,57.233208700000006,12.313246300000001,by
1949,Åseda,57.169126799999994,15.352502900000001,eda
1950,Åsele,64.1604218,17.355814399999996,sele
1951,Åsen,61.2751735,13.822347099999998,åsen
1952,Åsensbruk,58.8072431,12.419478199999999,bruk
1953,Åshammar,60.6422782,16.5540253,hammar
1954,Åsljunga,56.309388399999996,13.3744883,ljunga
1955,Åstorp,59.23027145,16.290164861073027,torp
1956,Åtvidaberg,58.2009877,16.0018979,berg
1957,Älandsbro,62.6779718,17.839215300000003,bro
1958,Älgarås,58.8135098,14.252111,ås
1959,Älghult,57.0072594,15.5716995,hult
1960,Älgö,59.266912600000005,18.3433478,ö
1961,Älmhult,56.55128829999999,14.1391762,hult
1962,Älmsta,59.971707200000004,18.8031423,sta
1963,Älvdalen,61.229898899999995,14.037394599999999,dalen
1964,Älvkarleby,60.571330700000004,17.4525042,by
1965,Älvkarleö,60.5360753,17.414947100000003,ö
1966,Älvnäs,59.2884738,17.763994,näs
1967,Älvsala,59.297232799999996,18.6404454,sala
1968,Älvsbyn,65.67514129999999,20.9969227,byn
1969,Älvsered,57.241455099999996,12.8664725,red
1970,Älvåker,59.421419400000005,13.4783244,åker
1971,Råtorp,59.4081549,13.489692100000001,torp
1972,Älvängen,57.957664799999996,12.1188331,ängen
1973,Äng,57.69557170000001,14.5666709,äng
1974,Änge,63.458115,14.0649326,änge
1975,Ängelholm,56.245259700000005,12.854404863512958,holm
1976,Ängesbyn,65.773842,22.0692158,byn
1977,Ängsmon,63.1436052,14.7527842,
1978,Ängsvik,59.3605049,18.510325100000003,vik
1979,Äppelbo,60.4858844,14.013852900000002,bo
1980,Ärla,59.282521100000004,16.6769841,la
1981,Äsköping,59.1475986,16.0688384,köping
1982,Äspered,57.7905781,13.0191095,red
1983,Äsperöd,55.60957320000001,13.918975699999999,röd
1984,Ätran,57.1201282,12.9444541,
1985,Öbolandet,58.8795817,17.57230341508746,landet
1986,Öbonäs,58.54071460000001,16.183652900000002,näs
1987,Ödeborg,58.545958,11.973591699999998,borg
1988,Ödeshög,58.231543200000004,14.6554063,hög
1989,Ödsmål,58.114608200000006,11.861381300000001,
1990,Ödsmål,57.915611399999996,11.8015909,
1991,Åsebyberg,57.9291037,11.808564599999999,berg
1992,Ödåkra,56.10739805,12.782837494270067,åkra
1993,Öggestorp,57.723374,14.3835715,torp
1994,Öja,56.853736,14.6215957,
1995,Öjersjö,57.703826899999996,12.143091900000002,sjö
1996,Ölmbrotorp,59.3896399,15.2447617,torp
1997,Ölme,59.362094799999994,14.0099476,
1998,Ölmstad,57.926612399999996,14.3976339,stad
1999,Ölsta,59.4001485,17.655159899999997,sta
2000,Önneköp,55.7861166,13.8708908,köp
2001,Önnestad,56.0558723,14.023399900000001,stad
2002,Örbyhus,60.2269328,17.7056289,hus
2003,Örebro,59.274728700000004,15.215118099999998,bro
2004,Öregrund,60.338115,18.4421817,grund
2005,Örkelljunga,56.28397679999999,13.2784525,ljunga
2006,Örnsköldsvik,63.2888613,18.716020899999997,vik
2007,Örserum,58.0101098,14.572033800000002,rum
2008,Örsjö,56.70080279999999,15.7480275,sjö
2009,Örslösa,58.5088181,13.0042585,lösa
2010,Örstig,58.727294400000005,17.077297100000003,
2011,Örsundsbro,59.73197879999999,17.302278,bro
2012,Örtagården,59.562154099999994,16.467674900000002,gården
2013,Örtofta,55.778322100000004,13.2439888,tofta
2014,Örviken,64.66895260000001,21.1796961,viken
2015,Ösmo,58.98282679999999,17.8961915,mo
2016,Össjö,56.228610200000006,13.031806800000002,sjö
2017,Östad,58.773954,11.562069699999999,stad
2018,Östadkulle,58.023945999999995,12.637291900000001,
2019,Östansjö,59.0445529,14.981608,sjö
2020,Östanå,60.627404299999995,16.808324399999997,å
2021,Österbybruk,60.1959366,17.901448499999997,bruk
2022,Österbymo,57.8247951,15.2753967,mo
2023,Österfärnebo,60.3056262,16.8001948,bo
2024,Österslöv,56.0962881,14.245903699999998,löv
2025,Österstad,58.51929770000001,15.176064199999999,stad
2026,Östersund,63.1793655,14.635706099999998,sund
2027,Östervåla,60.1809325,17.1780842,la
2028,Österå,60.6602093,15.631418400000001,rå
2029,Hökviken,60.7735137,15.8760753,viken
2030,Östhammar,60.2590164,18.3736581,hammar
2031,Östorp,59.1575321,18.0088039,torp
2032,Ådran,59.159954000000006,18.016570788308453,
2033,Östra Balltorp,57.638205000000006,11.9840099,torp
2034,Östra Bispgården,63.024153500000004,16.6354903,gården
2035,Östra Frölunda,57.3433155,13.0298612,lunda
2036,Östra Grevie,55.46754910000001,13.1357781,ie
2037,Östra Husby,58.57690079999999,16.563881,by
2038,Östra Karup,56.4238677,12.9431549,rup
2039,Östra Ljungby,56.191351299999994,13.0647787,by
2040,Östra Ryd,58.4049274,16.1645274,ryd
2041,Östra Stenåsen,59.4963162,13.3421016,åsen
2042,Östra Sönnarslöv,55.8859564,14.015647400000002,löv
2043,Östra Tommarp,55.5379173,14.234369899999999,arp
2044,Östra Vemmerlöv,55.5829329,14.232583400000001,löv
2045,Östraby,55.7581841,13.690381,by
2046,Överboda,63.85115379999999,19.924808600000002,boda
2047,Överhärde,60.6161409,16.9734455,
2048,Överkalix,66.3270552,22.8436881,
2049,Överlida,57.3497949,12.895822500000001,lida
2050,Övermarken,65.29328989999999,21.411751300000002,
2051,Maran,65.2815239,21.4403073,
2052,Övertorneå,66.3900454,23.6550021,eå
2053,Övertänger,60.865157700000005,15.762185500000001,
2054,Överum,57.98874870000001,16.3143158,rum
2055,Öxabäck,57.394745900000004,12.8046265,bäck
2056,Öxeryd,57.7376189,12.2743839,ryd
2057,Aapua,66.8598557,23.520964499999998,
2058,Aareavaara,67.4431755,23.4812892,vaara
2059,Abborrträsk,65.4497616,19.3868988,träsk
2060,Abisko,68.35016949999999,18.830005899999996,
2061,Adak,65.351162,18.594311899999997,
2062,Adolfsfors,59.8001201,12.2259216,fors
2063,Köla,59.802051600000006,12.241536300000002,la
2064,Agerum,56.1483299,14.6042886,rum
2065,Bjäraryd,56.156704299999994,14.599352599999998,ryd
2066,Aggarp,55.495852600000006,13.2332432,arp
2067,Aggetorp,57.8464456,12.280961099999999,torp
2068,Agnäs,63.8506369,19.261048000000002,näs
2069,Ala,56.5134861,13.0820898,ala
2070,Alafors,57.5459079,12.0994996,fors
2071,Albacken,62.7803201,16.0164045,backen
2072,Albano,59.66282729999999,18.0494322,
2073,Alboga,58.46507239999999,16.316367800000002,
2074,Alborga,60.652897700000004,17.0673185,borga
2075,Albrunna,56.31804,16.4197628,
2076,Alby,59.140695900000004,18.1743609,by
2077,Alby,59.85904300000001,18.6698431,by
2078,Alby,56.4829088,16.577212,by
2079,Ale,65.608343,21.6990299,
2080,Algustorp,56.22066120000001,13.8802663,torp
2081,Allarp,56.040833400000004,13.261653400000002,arp
2082,Allarp,56.449386700000005,12.935815400000001,arp
2083,Allarängen,57.5177031,12.2105322,ängen
2084,Kärra,57.5131835,12.2138946,
2085,Allmänninge,60.64071750000001,17.050624399999997,inge
2086,Almbro,59.1946075,15.2472951,bro
2087,Almered,57.5419405,12.4839326,red
2088,Bolg,57.5398145,12.4784085,
2089,Almo,60.755483999999996,14.850735199999999,mo
2090,Almvik,59.102899300000004,17.437822,vik
2091,Almvik,57.827687399999995,16.4655838,vik
2092,Alnarp,55.6576066,13.0834259,arp
2093,Alnaryd,56.3422111,15.4314571,ryd
2094,Alsen,63.386460899999996,13.9286711,
2095,Alsjöholm,56.6192103,15.8375495,holm
2096,Alstugorna,56.228215399999996,15.5862896,
2097,Alsån,66.3718573,22.9337208,
2098,Alva,57.2093817,18.360990100000002,
2099,Ambjörnhagen,57.576465899999995,11.973558500000001,hagen
2100,Ammarnäs,65.9605725,16.2057392,näs
2101,Andersbo,60.7755497,15.406265,bo
2102,Sågsbo,60.77024010000001,15.3915905,bo
2103,Angarn,59.5367968,18.1721604,garn
2104,Rörby,59.53407320000001,18.1727922,by
2105,Annexdal,55.38239295,13.423166441938609,dal
2106,Stensåker,55.3790521,13.422776990226383,åker
2107,Ansarve,57.51316070000001,18.1597781,arve
2108,Tofta,57.5208067,18.168597199999997,tofta
2109,Ansmark,63.74703639999999,20.129217899999997,mark
2110,Anstorp,59.0694182,15.556336499999999,torp
2111,Norra Kyrkbyn,61.60345279999999,16.3129309,byn
2112,Arkhyttan,60.4421971,15.884603699999998,tan
2113,Arkösund,58.4909106,16.937619199999997,sund
2114,Stöndar,63.15141139999999,17.7275178,
2115,Arlövgården,55.6230981,13.074064100000001,gården
2116,Arnemark,65.4902698,21.2098851,mark
2117,Arvaby,59.2780804,14.918351600000001,arvaby
2118,Arvslindan,60.534467799999994,15.1561483,
2119,Aröd,57.95844889999999,11.5813361,röd
2120,Asby,57.9029752,15.2061096,by
2121,Asige,56.8747336,12.7457705,ige
2122,Ask,55.9626568,13.2496622,
2123,Askeröd,55.7592157,13.594014300000001,röd
2124,Askesta,61.2725667,16.9944275,sta
2125,Aspa,58.927907,17.100568300000003,
2126,Aspeboda,60.560042,15.4918744,boda
2127,Aspeå,63.5357213,19.368026899999997,eå
2128,Aspliden,65.0650387,20.8460425,liden
2129,Asplund,59.8311118,18.7422359,lund
2130,Asplunda,59.7961922,17.586155899999998,lunda
2131,Aspåsnäset,63.3379375,14.594064600000001,
2132,Assartorp,55.581919799999994,13.335716699999999,torp
2133,Hässleberga,55.59211559999999,13.320654699999999,berga
2134,Assmundtorp,57.787353599999996,11.926882199999998,torp
2135,Skändla,57.777376100000005,11.933983300000001,la
2136,Attarp,56.095920299999996,13.480336999999999,arp
2137,Attmar,62.24469565,16.882056492249262,
2138,Auktsjaur,65.74597829999999,19.399151100000005,jaur
2139,Austers,57.97180329999999,19.237661399999997,
2140,Sudergårda,57.965475600000005,19.231503,
2141,Ausås,56.16612560000001,12.8904415,ås
2142,Avaträsk,64.3309184,16.3030195,träsk
2143,Avdala,59.4458241,15.2974085,dala
2144,Axamo,57.7771812,14.073727599999998,mo
2145,Axeltofta,55.860502399999994,12.8902979,tofta
2146,Axelvold,55.96902420000001,13.0926319,
2147,Backa,60.6608429,17.0767427,backa
2148,Backa,60.258515599999996,16.0191336,backa
2149,Backa,60.400168900000004,15.636634299999999,backa
2150,Backa,57.7571925,15.881631699999998,backa
2151,Backa,58.2697989,11.884266199999999,backa
2152,Backa,59.7713611,18.7439033,backa
2153,Björknäs,59.75526850000001,18.863273,näs
2154,Backabo,57.739531400000004,12.805029199999998,bo
2155,Bäckebo,57.73521039999999,12.804207199999999,bo
2156,Backagården,56.1642723,13.668037099999998,gården
2157,Backkrönet,59.218673100000004,17.372336999999998,
2158,Backäckra,57.57620260000001,12.420227800000001,
2159,Källäng,57.5969031,12.3851356,äng
2160,Baggbo,60.428824,15.305992199999999,bo
2161,Baggböle,63.8392978,20.130893399999998,böle
2162,Baggeryr,58.2087017,12.2712289,
2163,Gråbo,58.21752539999999,12.273718800000001,bo
2164,Balingsta,59.76333639999999,17.4235556,sta
2165,Ballabo,58.09010010000001,12.133816699999999,bo
2166,Balsjö,63.9253713,19.0720591,sjö
2167,Baltak,58.1476044,13.932483,
2168,Baltora,59.7336701,18.843335,
2169,Banafjäl,63.283820999999996,19.0370458,
2170,Barlingbo,57.564916000000004,18.4627068,bo
2171,Barnsjöområdet,57.5734989,12.119209199999998,
2172,Barnvik,59.288332999999994,18.648889,vik
2173,Barsele,65.0462471,17.4456962,sele
2174,Barum,56.1133037,14.3666935,rum
2175,Baskarp,58.0171196,14.144459900000001,arp
2176,Basttjärn,60.0224019,14.969532024268966,
2177,Bellö,57.5747156,15.3295962,ö
2178,Benareby,57.641507,12.1692366,by
2179,Benestad,56.87223,14.545090300000002,stad
2180,Bensjö,62.70441139999999,15.461422599999999,sjö
2181,Berg,62.368200699999996,17.1148165,berg
2182,Berg,60.514552,16.448681099999998,berg
2183,Berg,58.5018183,13.773880800000002,berg
2184,Berg,58.23194350000001,11.9049853,berg
2185,Sjökalla,60.93036239999999,17.0186193,la
2186,Skogen,58.331437699999995,11.6353038,skogen
2187,Kamperöd,58.339517,11.6564834,röd
2188,Berga,61.29127,16.929319500000002,berga
2189,Berga,58.005547899999996,11.74206,berga
2190,Berga,59.18407270000001,17.3042429,berga
2191,Berga ö,59.18407270000001,17.3042429,ö
2192,Bergdalen Edeby,59.30763065,17.868153823274653,by
2193,Berghag,58.702939199999996,16.9779599,
2194,Berghem,57.3856439,12.0076233,hem
2195,Bergholm,59.218721499999994,18.3144574,holm
2196,Bergkarlås,61.03365229999999,14.646785199999998,ås
